City_ID,City,Country,Max Temp,Current Description,Lat,Lng,Hotel Name
0,Avarua,CK,86.0,,-21.2078,-159.775,Paradise Inn
4,Touros,BR,78.8,,-5.1989,-35.4608,INN NEW HORIZON
9,Atuona,PF,80.33,,-9.8,-139.0333,Villa Enata
12,Vaini,TO,78.8,,-21.2,-175.2,Keleti Beach Resort
14,Yaan,NG,78.8,,7.3833,8.5667,
19,Hithadhoo,MV,82.53,,-0.6,73.0833,Scoop Guest House
22,Vanimo,PG,81.91,,-2.6741,141.3028,Vahmoneh Lodge Vanimo
24,Natal,BR,80.6,,-5.795,-35.2094,Villa Park Hotel | Natal
26,Bonthe,SL,78.37,,7.5264,-12.505,Bonthe Holiday Village
29,Rikitea,PF,79.54,,-23.1203,-134.9692,Pension Maro'i
33,Puerto Ayora,EC,82.4,,-0.7393,-90.3518,Finch Bay Galapagos Hotel
34,Vadgaon,IN,81.77,,20.9402,74.8712,Hostel No 1
38,Kulhudhuffushi,MV,82.62,,6.6221,73.07,Haajy Guest House 1
44,Umm Kaddadah,SD,80.13,,13.6017,26.6876,
45,Mahibadhoo,MV,82.0,,3.7833,72.9667,Omadhoo Inn
48,Grand Gaube,MU,77.0,,-20.0064,57.6608,Veranda Paul et Virginie Hotel & Spa
53,Bambous Virieux,MU,77.0,,-20.3428,57.7575,Casa Tia Villa
56,Tecpan,GT,75.2,,14.7623,-90.9947,San Ricardo Restaurante y Hotel
58,Mahebourg,MU,75.2,,-20.4081,57.7,Shandrani Beachcomber Resort & Spa
60,Saint-Pierre,RE,78.8,,-21.3393,55.4781,Lindsey Hôtel
61,Sai Buri,TH,75.63,,6.7013,101.6168,ร้าน​ เวดดิ้ง
65,Tual,ID,83.03,,-5.6667,132.75,Grand Vilia Hotel
68,Kapaa,US,79.0,,22.0752,-159.319,Sheraton Kauai Resort at Coconut Beach
70,Port Blair,IN,80.6,,11.6667,92.75,Welcomhotel Bay Island Port Blair
75,Rio Branco,BR,78.8,,-9.9747,-67.81,João Paulo Hotel
83,Concordia,AR,81.0,,-31.393,-58.0209,Palmar Hotel Casino
89,Kulim,MY,79.0,,5.365,100.5618,Hotel Kulim
92,Bubaque,GW,77.77,,11.2833,-15.8333,"Casa Dora, Bubaque"
97,Mitsamiouli,KM,82.49,,-11.3847,43.2844,Foyer ADM
104,Cozumel,MX,82.4,,20.5083,-86.9458,Cozumel Palace® All Inclusive Resort
108,Butaritari,KI,81.46,,3.0707,172.7902,Isles Sunset Lodge
110,Iralaya,HN,84.2,,15.0,-83.2333,Iglesia morava renovada
112,Faanui,PF,83.61,,-16.4833,-151.75,Bora-Bora Pearl Beach Resort & Spa
113,Saint-Philippe,RE,78.8,,-21.3585,55.7679,"Chambres d'hôte ""La Trinité"""
117,Ouegoa,NC,81.18,,-20.35,164.4333,
119,Cabedelo,BR,75.2,,-6.9811,-34.8339,Hotel Pigalle
120,Arraial Do Cabo,BR,78.8,,-22.9661,-42.0278,Pousada Porto Praia
122,Sorong,ID,78.62,,-0.8833,131.25,The Waigo Hotel
124,Ugoofaaru,MV,82.63,,5.6667,73.0,Ungoofaaru Inn
125,Ibotirama,BR,85.48,,-12.1853,-43.2206,Serra do Rio Hotel
131,Port-Gentil,GA,78.8,,-0.7193,8.7815,Fengshui Residence
132,Hilo,US,84.2,,19.7297,-155.09,Hilo Hawaiian Hotel
135,Lorengau,PG,81.45,,-2.0226,147.2712,Lorengau Harbourside Hotel
142,Inirida,CO,77.2,,3.8653,-67.9239,Fuente del Guania Hotel de Lujo
143,Mangrol,IN,78.17,,21.1167,70.1167,Hotel The Royal Honours
148,Tiarei,PF,87.01,,-17.5333,-149.3333,Le Rocher de Tahiti
149,Noumea,NC,84.2,,-22.2763,166.4572,Hôtel Le Lagon
150,Salvador,SV,87.8,,13.8333,-88.9167,Chico's Ranch
151,Georgetown,MY,79.0,,5.4112,100.3354,Cititel Penang
155,Alenquer,BR,77.0,,-1.9417,-54.7383,Josilene Castro
156,Phuket,TH,84.99,,8.0,98.25,The Surin Phuket
164,Peruibe,BR,76.32,,-24.32,-46.9983,Hotel Pousada Xapuri
166,Kroya,ID,76.95,,-7.6331,109.2461,RUSTANTO Fam
169,Innisfail,AU,81.18,,-17.5333,146.0333,Moondarra Motel
174,Padang,ID,75.2,,-0.9492,100.3543,Mercure Padang
175,Alofi,NU,86.0,,-19.0595,-169.9187,Taloa Heights
180,Mokolo,CM,81.19,,10.7398,13.8019,Diwa Hôtel
182,Caravelas,BR,75.79,,-17.7125,-39.2481,Pousada dos Navegantes
185,Buala,SB,85.01,,-8.145,159.5921,Maringe Lagoon Lodge
191,Calderitas,MX,84.2,,18.55,-88.25,Hotel Hacienda Campestre
201,Morrope,PE,75.2,,-6.5417,-80.0111,Hipolito santamaria
205,Kyabe,TD,86.43,,9.4515,18.9449,
207,Honiara,SB,84.67,,-9.4333,159.95,Heritage Park Hotel
208,Namatanai,PG,82.89,,-3.6667,152.4333,Namatanai Hotel
214,Santa Maria,BR,75.2,,-29.6842,-53.8069,Hotel Morotin
222,Mecca,SA,75.67,,21.4267,39.8261,"Makkah Clock Royal Tower, A Fairmont Hotel"
223,Carutapera,BR,75.47,,-1.195,-46.02,Lidera
229,Gainesville,US,75.2,,29.6516,-82.3248,Holiday Inn Gainesville-University Ctr
231,Abadan,IR,75.2,,30.3392,48.3043,سالن مراسمات خانه معلم
235,Cape Canaveral,US,75.2,,28.4058,-80.6048,Residence Inn by Marriott Cape Canaveral Cocoa Beach
241,Denpasar,ID,78.8,,-8.65,115.2167,ASTON Denpasar Hotel & Convention Center
250,Dicabisagan,PH,76.15,,17.0818,122.4157,Nancy Montanes Bernardo
251,Buraydah,SA,78.8,,26.326,43.975,فندق راحة السلام
253,Nhulunbuy,AU,78.8,,-12.2333,136.7667,East Arnhem Real Estate
255,Conway,US,78.01,,35.0887,-92.4421,"Country Inn & Suites by Radisson, Conway, AR"
256,Palauig,PH,79.7,,15.435,119.9045,Myhousebythesea
263,Gorontalo,ID,76.39,,0.5412,123.0595,Maqna Hotel by Prasanthi
265,Kavaratti,IN,82.02,,10.5669,72.642,Hotels in Lakshadweep Islands
267,Axim,GH,79.81,,4.8699,-2.2405,AXIM BEACH RESORT AND SPA
271,Batticaloa,LK,78.73,,7.7102,81.6924,Grand Star Guest House
273,Madang,PG,79.41,,-5.2246,145.7966,Comfort Inn Hotel
274,Omboue,GA,76.89,,-1.5746,9.2618,Hotel Olako
286,Lakatoro,VU,82.2,,-16.0999,167.4164,Lakatoro Palm Lodge
291,Makakilo City,US,80.6,,21.3469,-158.0858,Marriott's Ko Olina Beach Club
294,Jati,PK,76.33,,24.3539,68.2671,Cafe Lala Rehan Restaurant
295,Riyadh,SA,87.8,,24.6877,46.7219,InterContinental Riyadh
296,Santa Clara,CU,86.0,,22.4,-79.9667,El Carmen
297,Kupang,ID,75.2,,-10.1667,123.5833,Hotel On The Rock by Prasanthi
299,Sur,OM,76.15,,22.5667,59.5289,Sur Plaza Hotel
303,Olinda,BR,77.0,,-8.0089,-34.8553,Hotel Albergue de Olinda
304,Souillac,MU,75.2,,-20.5167,57.5167,Shanti Maurice Resort & Spa
308,Dhidhdhoo,MV,82.69,,6.8833,73.1,Dhidhoo beach
310,Ambon,ID,77.0,,-3.6954,128.1814,Swiss-Belhotel Ambon
312,Bathsheba,BB,78.8,,13.2167,-59.5167,Atlantis Hotel
323,Lamar,US,78.8,,33.6668,-95.5836,Kings Inn Paris TX
324,Atambua,ID,75.85,,-9.1061,124.8925,Pastori 1 Jemaat Polycarpus
325,Buchanan,LR,77.52,,5.8808,-10.0467,Kamaneahn Hotel Inc
326,Pijijiapan,MX,85.82,,15.7011,-93.23,Hotel Rosita
327,Mersing,MY,75.2,,2.4312,103.8405,Timotel Hotel
328,Cairns,AU,79.0,,-16.9167,145.7667,Mantra Trilogy Cairns
329,Yako,BF,85.42,,12.9667,-2.2667,Ecole de Sibega
332,Manokwari,ID,79.5,,-0.8667,134.0833,Swiss Belhotel Manokwari
334,Champerico,GT,87.8,,14.3,-91.9167,"Hotel y restaurante ""El Diamante"""
337,Daru,PG,80.89,,-9.0763,143.2092,Daru Lodge
338,Kavieng,PG,82.67,,-2.5744,150.7967,Nusa Island Retreat
343,Arawa,PG,84.52,,-6.2132,155.5367,Coastline Guest House
344,Rincon,US,75.0,,32.296,-81.2354,Days Inn Rincon
351,Pontianak,ID,75.2,,-0.0333,109.3333,Aston Pontianak Hotel & Convention Center
353,Mount Isa,AU,77.0,,-20.7333,139.5,ibis Styles Mt Isa Verona
360,Sola,VU,78.8,,-13.8833,167.55,Leumerus Bungalows
367,Jaciara,BR,75.09,,-15.9653,-54.9683,Taba Hotel
369,Bida,NG,82.8,,9.0833,6.0167,Royal Suite
373,Bugama,NG,76.48,,4.7341,6.8635,Johnbull polo
374,Mahina,PF,87.01,,-17.5065,-149.489,Guest Beach Bungalow Tahiti
375,Hobyo,SO,77.74,,5.3505,48.5268,Halane Hotel and Restaurent
377,Ballina,AU,75.2,,-28.8667,153.5667,Ramada Hotel & Suites by Wyndham Ballina Byron
380,Vila Velha,BR,80.6,,-20.3297,-40.2925,Quality Suites Vila Velha
382,Sibolga,ID,75.49,,1.7427,98.7792,Hotel Syariah CN Darussalam
385,Ambilobe,MG,75.58,,-13.2,49.05,Hôtel & Restaurant DIANA Ambilobe
386,Poya,NC,81.64,,-21.35,165.15,
387,Manadhoo,MV,82.98,,5.7667,73.3833,Vevu Guesthouse
390,Touho,NC,77.67,,-20.7833,165.2333,Auberge Timay Evasion
399,Acapulco,MX,82.4,,16.8634,-99.8901,HS Hotsson Smart Acapulco
401,Carinhanha,BR,78.58,,-14.3047,-43.765,Hotel Canoeiro
403,Vao,NC,76.19,,-22.6667,167.4833,Hotel Kou-Bugny
405,Naranjal,EC,84.2,,-2.6667,-79.6167,Media Naranja
409,Uribia,CO,83.97,,11.7139,-72.266,Hotel Uribia
415,Huntington,US,78.8,,38.4193,-82.4452,Ramada Limited Huntington
416,Isangel,VU,78.8,,-19.55,169.2667,Volcano Sea View Tree House
417,Conakry,GN,80.6,,9.538,-13.6773,Riviera Royal Hotel
422,Pekan,MY,75.2,,3.4836,103.3996,Pekan Budget Hotel
424,Florianopolis,BR,77.0,,-27.6146,-48.5012,Hotel Boutique Quinta das Videiras
425,Salinopolis,BR,77.11,,-0.6136,-47.3561,Salinas Park Resort Maçarico AP101
435,Lazaro Cardenas,MX,79.57,,17.9583,-102.2,Hotel Quinta Antigua
437,San Patricio,US,84.2,,28.017,-97.5169,"Motel 6 Sinton, TX"
439,Gizo,SB,83.68,,-8.103,156.8419,Imagination Island
440,Parana,AR,79.0,,-31.732,-60.5238,Howard Johnson Plaza Hotel Mayorazgo
443,Matara,LK,75.87,,5.9485,80.5353,Amaloh Boutique Resort
446,Sao Joao Da Barra,BR,80.6,,-21.6403,-41.0511,Pousada Porto De Canoas
447,Piacabucu,BR,78.66,,-10.4056,-36.4344,Piaçabuçu News
451,Harper,LR,78.22,,4.375,-7.7169,Screensaver
457,Tres De Maio,BR,86.0,,-27.7733,-54.24,Hotel SABOR e ACONCHEGO
461,Puerto Salgar,CO,78.71,,5.462999999999999,-74.6544,Hotel Confort
464,Gold Coast,AU,79.0,,-28.0,153.4333,Mantra Towers of Chevron Surfers Paradise
466,Roebourne,AU,81.16,,-20.7833,117.1333,Harding River Caravan Park
468,Yellandu,IN,76.28,,17.6,80.3333,Chekuri Satyanarayana
471,Bucerias,MX,77.0,,20.75,-105.3333,Villa del Palmar Flamingos Beach Resort & Spa Riviera Nayarit
472,Maine-Soroa,NE,82.08,,13.2114,12.0241,Complexe
476,San Carlos Del Zulia,VE,78.91,,9.0,-71.9135,Hotel El Manantial
478,Soyo,AO,79.14,,-6.1349,12.3689,Hotel Mpampa
479,Salalah,OM,78.8,,17.0151,54.0924,HAMDAN PLAZA HOTEL SALALAH
484,Vung Tau,VN,79.07,,10.345999999999998,107.0843,Green hotel
493,Manggar,ID,77.27,,-2.8833,108.2667,Guest Hotel
506,Bosaso,SO,76.53,,11.2842,49.1816,Red Sea Hotel
509,San Cristobal,VE,82.4,,7.7669,-72.225,Posada Villaven C.A.
515,Saint-Georges,GD,80.6,,12.0564,-61.7485,Siesta Hotel
517,Almenara,BR,78.8,,-16.1836,-40.6944,Pousada Estância
526,Poum,NC,80.24,,-20.2333,164.0167,Gîte kajeon
527,Nanakuli,US,80.01,,21.3906,-158.1547,Camp Pālehua
529,Bengkulu,ID,76.14,,-3.8004,102.2655,Grage Hotel Bengkulu
530,Tautira,PF,87.01,,-17.7333,-149.15,Pension Oaoa
532,Riohacha,CO,81.23,,11.5444,-72.9072,Hotel Taroa
535,Diapaga,BF,88.45,,12.0708,1.7889,
537,Santiago Del Estero,AR,81.48,,-27.7951,-64.2615,Apartamentos Castelli 90
538,Puerto Escondido,MX,86.0,,15.85,-97.0667,Aldea del Bazar Hotel and Spa
539,Mareeba,AU,79.0,,-17.0,145.4333,Trinity Plains Tourist Park
542,Atar,MR,81.18,,20.5169,-13.0499,Oumou Elghoura
546,Bandarbeyla,SO,75.94,,9.4942,50.8122,JABIR HOTEL
551,Katobu,ID,77.67,,-4.9408,122.5276,La Ode Husein
552,La Orilla,MX,79.48,,17.9833,-102.2333,Baymont by Wyndham Lazaro Cardenas
556,Lagunas,PE,76.1,,-5.2269,-75.6753,Hospedaje Eco
558,Kahului,US,80.6,,20.8947,-156.47,Maui Seaside Hotel
559,San Jose De Guanipa,VE,88.16,,8.8872,-64.1651,HOTEL 283 SUITES
562,Pemangkat,ID,75.06,,1.1667,108.9667,Kost H.Syamsuddin
565,Emerald,AU,79.0,,-23.5333,148.1667,The Irish Village
566,Djibo,BF,87.76,,14.1022,-1.6306,Centre Des Ressources DPENA
574,Pilar,BR,77.0,,-9.5972,-35.9567,Pousada e churrascaria Manguaba
578,Quatre Cocos,MU,77.0,,-20.2078,57.7625,Emeraude Beach Attitude Hotel
579,San Martin,AR,75.2,,-33.080999999999996,-68.4681,Club El Pelícano
584,Kpandae,GH,82.8,,8.4689,-0.0113,S. Amaski Guest House
586,Banda Aceh,ID,77.99,,5.5577,95.3222,Sulthan Hotel International
590,Diffa,NE,84.16,,13.3154,12.6113,ProDAF/Diffa
597,Fuerte Olimpo,PY,84.22,,-21.0415,-57.8738,Hospedaje DAMI
598,Yeppoon,AU,78.8,,-23.1333,150.7333,Villa Mar Colina
601,Lampang,TH,84.99,,18.3333,99.5,Mrs Luis Guest House
602,Dunmore Town,BS,76.98,,25.5,-76.65,Coral Sands Hotel
603,Wajir,KE,84.13,,1.7471,40.0573,Al-bustan Hotel And Restaurant.
605,Muncar,ID,75.45,,-8.4333,114.3333,Zaky Homestay
606,Acarau,BR,77.99,,-2.8856,-40.12,castelo pizzaria
609,Ciudad Guayana,VE,87.01,,8.3533,-62.6528,Hotel Las Americas
610,Uchiza,PE,75.0,,-8.4592,-76.4633,Hotel San Pedro
611,Soure,BR,75.76,,-0.7167,-48.5233,Casarão
612,Labuhan,ID,77.9,,-6.8844,112.2051,PT PPI Lamongan Tambak C
613,Kieta,PG,83.61,,-6.2167,155.6333,Uruna Bay Retreat
615,Totness,SR,76.44,,5.8833,-56.3167,STAATS LOGEERGEBOUW TOTNESS
616,Biltine,TD,83.53,,14.5333,20.9167,Hôtel Trois Étoiles de Biltine
617,Samarai,PG,83.3,,-10.6167,150.6667,Nuli Sapi
618,Tomatlan,MX,84.58,,19.9333,-105.25,Norma franco
619,Auki,SB,84.85,,-8.7676,160.7034,Auki Motel
627,Maningrida,AU,82.11,,-12.0667,134.2667,Dhukurrdji Lodge
628,Sinnamary,GF,76.96,,5.3833,-52.95,ALETHEIA Appartement Sinnamary
631,Manta,EC,80.6,,-0.95,-80.7333,Balandra Hotel
638,Bonfim,BR,79.7,,3.0833,-59.95,
639,Mayor Pablo Lagerenza,PY,81.28,,-19.9309,-60.7718,
643,Kirakira,SB,84.29,,-10.4544,161.9205,SanBiz Lodge
647,Moranbah,AU,77.5,,-22.0016,148.0466,Direct Hotels - Monterey Moranbah
653,Dingle,PH,77.49,,10.9995,122.6711,SEGAYA PROPERTY
656,Bahia Honda,CU,81.54,,22.9036,-83.1592,Casa Gualberto - Deysi
664,Porto Novo,BJ,80.6,,6.4965,2.6036,Tour Eiffel Hotel Benin
665,Celestun,MX,82.96,,20.8667,-90.4,Posada Lilia
669,Marsh Harbour,BS,76.32,,26.5412,-77.0636,Abaco Beach Resort
672,Biak,ID,77.25,,-0.9131,122.8766,Penginapan Kim
676,Satipo,PE,75.09,,-11.2522,-74.6386,Hotel Mayros
677,Lom Sak,TH,78.51,,16.7798,101.2422,บ้านวรฉัตร หล่มสัก
680,Avarua,CK,86.0,,-21.2078,-159.775,Paradise Inn
684,Touros,BR,78.8,,-5.1989,-35.4608,INN NEW HORIZON
689,Atuona,PF,80.33,,-9.8,-139.0333,Villa Enata
692,Vaini,TO,78.8,,-21.2,-175.2,Keleti Beach Resort
694,Yaan,NG,78.8,,7.3833,8.5667,
699,Hithadhoo,MV,82.53,,-0.6,73.0833,Scoop Guest House
702,Vanimo,PG,81.91,,-2.6741,141.3028,Vahmoneh Lodge Vanimo
704,Natal,BR,80.6,,-5.795,-35.2094,Villa Park Hotel | Natal
706,Bonthe,SL,78.37,,7.5264,-12.505,Bonthe Holiday Village
709,Rikitea,PF,79.54,,-23.1203,-134.9692,Pension Maro'i
713,Puerto Ayora,EC,82.4,,-0.7393,-90.3518,Finch Bay Galapagos Hotel
714,Vadgaon,IN,81.77,,20.9402,74.8712,Hostel No 1
718,Kulhudhuffushi,MV,82.62,,6.6221,73.07,Haajy Guest House 1
724,Umm Kaddadah,SD,80.13,,13.6017,26.6876,
725,Mahibadhoo,MV,82.0,,3.7833,72.9667,Omadhoo Inn
728,Grand Gaube,MU,77.0,,-20.0064,57.6608,Veranda Paul et Virginie Hotel & Spa
733,Bambous Virieux,MU,77.0,,-20.3428,57.7575,Casa Tia Villa
736,Tecpan,GT,75.2,,14.7623,-90.9947,San Ricardo Restaurante y Hotel
738,Mahebourg,MU,75.2,,-20.4081,57.7,Shandrani Beachcomber Resort & Spa
740,Saint-Pierre,RE,78.8,,-21.3393,55.4781,Lindsey Hôtel
741,Sai Buri,TH,75.63,,6.7013,101.6168,ร้าน​ เวดดิ้ง
745,Tual,ID,83.03,,-5.6667,132.75,Grand Vilia Hotel
748,Kapaa,US,79.0,,22.0752,-159.319,Sheraton Kauai Resort at Coconut Beach
750,Port Blair,IN,80.6,,11.6667,92.75,Welcomhotel Bay Island Port Blair
755,Rio Branco,BR,78.8,,-9.9747,-67.81,João Paulo Hotel
763,Concordia,AR,81.0,,-31.393,-58.0209,Palmar Hotel Casino
769,Kulim,MY,79.0,,5.365,100.5618,Hotel Kulim
772,Bubaque,GW,77.77,,11.2833,-15.8333,"Casa Dora, Bubaque"
777,Mitsamiouli,KM,82.49,,-11.3847,43.2844,Foyer ADM
784,Cozumel,MX,82.4,,20.5083,-86.9458,Cozumel Palace® All Inclusive Resort
788,Butaritari,KI,81.46,,3.0707,172.7902,Isles Sunset Lodge
790,Iralaya,HN,84.2,,15.0,-83.2333,Iglesia morava renovada
792,Faanui,PF,83.61,,-16.4833,-151.75,Bora-Bora Pearl Beach Resort & Spa
793,Saint-Philippe,RE,78.8,,-21.3585,55.7679,"Chambres d'hôte ""La Trinité"""
797,Ouegoa,NC,81.18,,-20.35,164.4333,
799,Cabedelo,BR,75.2,,-6.9811,-34.8339,Hotel Pigalle
800,Arraial Do Cabo,BR,78.8,,-22.9661,-42.0278,Pousada Porto Praia
802,Sorong,ID,78.62,,-0.8833,131.25,The Waigo Hotel
804,Ugoofaaru,MV,82.63,,5.6667,73.0,Ungoofaaru Inn
805,Ibotirama,BR,85.48,,-12.1853,-43.2206,Serra do Rio Hotel
811,Port-Gentil,GA,78.8,,-0.7193,8.7815,Fengshui Residence
812,Hilo,US,84.2,,19.7297,-155.09,Hilo Hawaiian Hotel
815,Lorengau,PG,81.45,,-2.0226,147.2712,Lorengau Harbourside Hotel
822,Inirida,CO,77.2,,3.8653,-67.9239,Fuente del Guania Hotel de Lujo
823,Mangrol,IN,78.17,,21.1167,70.1167,Hotel The Royal Honours
828,Tiarei,PF,87.01,,-17.5333,-149.3333,Le Rocher de Tahiti
829,Noumea,NC,84.2,,-22.2763,166.4572,Hôtel Le Lagon
830,Salvador,SV,87.8,,13.8333,-88.9167,Chico's Ranch
831,Georgetown,MY,79.0,,5.4112,100.3354,Cititel Penang
835,Alenquer,BR,77.0,,-1.9417,-54.7383,Josilene Castro
836,Phuket,TH,84.99,,8.0,98.25,The Surin Phuket
844,Peruibe,BR,76.32,,-24.32,-46.9983,Hotel Pousada Xapuri
846,Kroya,ID,76.95,,-7.6331,109.2461,RUSTANTO Fam
849,Innisfail,AU,81.18,,-17.5333,146.0333,Moondarra Motel
854,Padang,ID,75.2,,-0.9492,100.3543,Mercure Padang
855,Alofi,NU,86.0,,-19.0595,-169.9187,Taloa Heights
860,Mokolo,CM,81.19,,10.7398,13.8019,Diwa Hôtel
862,Caravelas,BR,75.79,,-17.7125,-39.2481,Pousada dos Navegantes
865,Buala,SB,85.01,,-8.145,159.5921,Maringe Lagoon Lodge
871,Calderitas,MX,84.2,,18.55,-88.25,Hotel Hacienda Campestre
881,Morrope,PE,75.2,,-6.5417,-80.0111,Hipolito santamaria
885,Kyabe,TD,86.43,,9.4515,18.9449,
887,Honiara,SB,84.67,,-9.4333,159.95,Heritage Park Hotel
888,Namatanai,PG,82.89,,-3.6667,152.4333,Namatanai Hotel
894,Santa Maria,BR,75.2,,-29.6842,-53.8069,Hotel Morotin
902,Mecca,SA,75.67,,21.4267,39.8261,"Makkah Clock Royal Tower, A Fairmont Hotel"
903,Carutapera,BR,75.47,,-1.195,-46.02,Lidera
909,Gainesville,US,75.2,,29.6516,-82.3248,Holiday Inn Gainesville-University Ctr
911,Abadan,IR,75.2,,30.3392,48.3043,سالن مراسمات خانه معلم
915,Cape Canaveral,US,75.2,,28.4058,-80.6048,Residence Inn by Marriott Cape Canaveral Cocoa Beach
921,Denpasar,ID,78.8,,-8.65,115.2167,ASTON Denpasar Hotel & Convention Center
930,Dicabisagan,PH,76.15,,17.0818,122.4157,Nancy Montanes Bernardo
931,Buraydah,SA,78.8,,26.326,43.975,فندق راحة السلام
933,Nhulunbuy,AU,78.8,,-12.2333,136.7667,East Arnhem Real Estate
935,Conway,US,78.01,,35.0887,-92.4421,"Country Inn & Suites by Radisson, Conway, AR"
936,Palauig,PH,79.7,,15.435,119.9045,Myhousebythesea
943,Gorontalo,ID,76.39,,0.5412,123.0595,Maqna Hotel by Prasanthi
945,Kavaratti,IN,82.02,,10.5669,72.642,Hotels in Lakshadweep Islands
947,Axim,GH,79.81,,4.8699,-2.2405,AXIM BEACH RESORT AND SPA
951,Batticaloa,LK,78.73,,7.7102,81.6924,Grand Star Guest House
953,Madang,PG,79.41,,-5.2246,145.7966,Comfort Inn Hotel
954,Omboue,GA,76.89,,-1.5746,9.2618,Hotel Olako
966,Lakatoro,VU,82.2,,-16.0999,167.4164,Lakatoro Palm Lodge
971,Makakilo City,US,80.6,,21.3469,-158.0858,Marriott's Ko Olina Beach Club
974,Jati,PK,76.33,,24.3539,68.2671,Cafe Lala Rehan Restaurant
975,Riyadh,SA,87.8,,24.6877,46.7219,InterContinental Riyadh
976,Santa Clara,CU,86.0,,22.4,-79.9667,El Carmen
977,Kupang,ID,75.2,,-10.1667,123.5833,Hotel On The Rock by Prasanthi
979,Sur,OM,76.15,,22.5667,59.5289,Sur Plaza Hotel
983,Olinda,BR,77.0,,-8.0089,-34.8553,Hotel Albergue de Olinda
984,Souillac,MU,75.2,,-20.5167,57.5167,Shanti Maurice Resort & Spa
988,Dhidhdhoo,MV,82.69,,6.8833,73.1,Dhidhoo beach
990,Ambon,ID,77.0,,-3.6954,128.1814,Swiss-Belhotel Ambon
992,Bathsheba,BB,78.8,,13.2167,-59.5167,Atlantis Hotel
1003,Lamar,US,78.8,,33.6668,-95.5836,Kings Inn Paris TX
1004,Atambua,ID,75.85,,-9.1061,124.8925,Pastori 1 Jemaat Polycarpus
1005,Buchanan,LR,77.52,,5.8808,-10.0467,Kamaneahn Hotel Inc
1006,Pijijiapan,MX,85.82,,15.7011,-93.23,Hotel Rosita
1007,Mersing,MY,75.2,,2.4312,103.8405,Timotel Hotel
1008,Cairns,AU,79.0,,-16.9167,145.7667,Mantra Trilogy Cairns
1009,Yako,BF,85.42,,12.9667,-2.2667,Ecole de Sibega
1012,Manokwari,ID,79.5,,-0.8667,134.0833,Swiss Belhotel Manokwari
1014,Champerico,GT,87.8,,14.3,-91.9167,"Hotel y restaurante ""El Diamante"""
1017,Daru,PG,80.89,,-9.0763,143.2092,Daru Lodge
1018,Kavieng,PG,82.67,,-2.5744,150.7967,Nusa Island Retreat
1023,Arawa,PG,84.52,,-6.2132,155.5367,Coastline Guest House
1024,Rincon,US,75.0,,32.296,-81.2354,Days Inn Rincon
1031,Pontianak,ID,75.2,,-0.0333,109.3333,Aston Pontianak Hotel & Convention Center
1033,Mount Isa,AU,77.0,,-20.7333,139.5,ibis Styles Mt Isa Verona
1040,Sola,VU,78.8,,-13.8833,167.55,Leumerus Bungalows
1047,Jaciara,BR,75.09,,-15.9653,-54.9683,Taba Hotel
1049,Bida,NG,82.8,,9.0833,6.0167,Royal Suite
1053,Bugama,NG,76.48,,4.7341,6.8635,Johnbull polo
1054,Mahina,PF,87.01,,-17.5065,-149.489,Guest Beach Bungalow Tahiti
1055,Hobyo,SO,77.74,,5.3505,48.5268,Halane Hotel and Restaurent
1057,Ballina,AU,75.2,,-28.8667,153.5667,Ramada Hotel & Suites by Wyndham Ballina Byron
1060,Vila Velha,BR,80.6,,-20.3297,-40.2925,Quality Suites Vila Velha
1062,Sibolga,ID,75.49,,1.7427,98.7792,Hotel Syariah CN Darussalam
1065,Ambilobe,MG,75.58,,-13.2,49.05,Hôtel & Restaurant DIANA Ambilobe
1066,Poya,NC,81.64,,-21.35,165.15,
1067,Manadhoo,MV,82.98,,5.7667,73.3833,Vevu Guesthouse
1070,Touho,NC,77.67,,-20.7833,165.2333,Auberge Timay Evasion
1079,Acapulco,MX,82.4,,16.8634,-99.8901,HS Hotsson Smart Acapulco
1081,Carinhanha,BR,78.58,,-14.3047,-43.765,Hotel Canoeiro
1083,Vao,NC,76.19,,-22.6667,167.4833,Hotel Kou-Bugny
1085,Naranjal,EC,84.2,,-2.6667,-79.6167,Media Naranja
1089,Uribia,CO,83.97,,11.7139,-72.266,Hotel Uribia
1095,Huntington,US,78.8,,38.4193,-82.4452,Ramada Limited Huntington
1096,Isangel,VU,78.8,,-19.55,169.2667,Volcano Sea View Tree House
1097,Conakry,GN,80.6,,9.538,-13.6773,Riviera Royal Hotel
1102,Pekan,MY,75.2,,3.4836,103.3996,Pekan Budget Hotel
1104,Florianopolis,BR,77.0,,-27.6146,-48.5012,Hotel Boutique Quinta das Videiras
1105,Salinopolis,BR,77.11,,-0.6136,-47.3561,Salinas Park Resort Maçarico AP101
1115,Lazaro Cardenas,MX,79.57,,17.9583,-102.2,Hotel Quinta Antigua
1117,San Patricio,US,84.2,,28.017,-97.5169,"Motel 6 Sinton, TX"
1119,Gizo,SB,83.68,,-8.103,156.8419,Imagination Island
1120,Parana,AR,79.0,,-31.732,-60.5238,Howard Johnson Plaza Hotel Mayorazgo
1123,Matara,LK,75.87,,5.9485,80.5353,Amaloh Boutique Resort
1126,Sao Joao Da Barra,BR,80.6,,-21.6403,-41.0511,Pousada Porto De Canoas
1127,Piacabucu,BR,78.66,,-10.4056,-36.4344,Piaçabuçu News
1131,Harper,LR,78.22,,4.375,-7.7169,Screensaver
1137,Tres De Maio,BR,86.0,,-27.7733,-54.24,Hotel SABOR e ACONCHEGO
1141,Puerto Salgar,CO,78.71,,5.462999999999999,-74.6544,Hotel Confort
1144,Gold Coast,AU,79.0,,-28.0,153.4333,Mantra Towers of Chevron Surfers Paradise
1146,Roebourne,AU,81.16,,-20.7833,117.1333,Harding River Caravan Park
1148,Yellandu,IN,76.28,,17.6,80.3333,Chekuri Satyanarayana
1151,Bucerias,MX,77.0,,20.75,-105.3333,Villa del Palmar Flamingos Beach Resort & Spa Riviera Nayarit
1152,Maine-Soroa,NE,82.08,,13.2114,12.0241,Complexe
1156,San Carlos Del Zulia,VE,78.91,,9.0,-71.9135,Hotel El Manantial
1158,Soyo,AO,79.14,,-6.1349,12.3689,Hotel Mpampa
1159,Salalah,OM,78.8,,17.0151,54.0924,HAMDAN PLAZA HOTEL SALALAH
1164,Vung Tau,VN,79.07,,10.345999999999998,107.0843,Green hotel
1173,Manggar,ID,77.27,,-2.8833,108.2667,Guest Hotel
1186,Bosaso,SO,76.53,,11.2842,49.1816,Red Sea Hotel
1189,San Cristobal,VE,82.4,,7.7669,-72.225,Posada Villaven C.A.
1195,Saint-Georges,GD,80.6,,12.0564,-61.7485,Siesta Hotel
1197,Almenara,BR,78.8,,-16.1836,-40.6944,Pousada Estância
1206,Poum,NC,80.24,,-20.2333,164.0167,Gîte kajeon
1207,Nanakuli,US,80.01,,21.3906,-158.1547,Camp Pālehua
1209,Bengkulu,ID,76.14,,-3.8004,102.2655,Grage Hotel Bengkulu
1210,Tautira,PF,87.01,,-17.7333,-149.15,Pension Oaoa
1212,Riohacha,CO,81.23,,11.5444,-72.9072,Hotel Taroa
1215,Diapaga,BF,88.45,,12.0708,1.7889,
1217,Santiago Del Estero,AR,81.48,,-27.7951,-64.2615,Apartamentos Castelli 90
1218,Puerto Escondido,MX,86.0,,15.85,-97.0667,Aldea del Bazar Hotel and Spa
1219,Mareeba,AU,79.0,,-17.0,145.4333,Trinity Plains Tourist Park
1222,Atar,MR,81.18,,20.5169,-13.0499,Oumou Elghoura
1226,Bandarbeyla,SO,75.94,,9.4942,50.8122,JABIR HOTEL
1231,Katobu,ID,77.67,,-4.9408,122.5276,La Ode Husein
1232,La Orilla,MX,79.48,,17.9833,-102.2333,Baymont by Wyndham Lazaro Cardenas
1236,Lagunas,PE,76.1,,-5.2269,-75.6753,Hospedaje Eco
1238,Kahului,US,80.6,,20.8947,-156.47,Maui Seaside Hotel
1239,San Jose De Guanipa,VE,88.16,,8.8872,-64.1651,HOTEL 283 SUITES
1242,Pemangkat,ID,75.06,,1.1667,108.9667,Kost H.Syamsuddin
1245,Emerald,AU,79.0,,-23.5333,148.1667,The Irish Village
1246,Djibo,BF,87.76,,14.1022,-1.6306,Centre Des Ressources DPENA
1254,Pilar,BR,77.0,,-9.5972,-35.9567,Pousada e churrascaria Manguaba
1258,Quatre Cocos,MU,77.0,,-20.2078,57.7625,Emeraude Beach Attitude Hotel
1259,San Martin,AR,75.2,,-33.080999999999996,-68.4681,Club El Pelícano
1264,Kpandae,GH,82.8,,8.4689,-0.0113,S. Amaski Guest House
1266,Banda Aceh,ID,77.99,,5.5577,95.3222,Sulthan Hotel International
1270,Diffa,NE,84.16,,13.3154,12.6113,ProDAF/Diffa
1277,Fuerte Olimpo,PY,84.22,,-21.0415,-57.8738,Hospedaje DAMI
1278,Yeppoon,AU,78.8,,-23.1333,150.7333,Villa Mar Colina
1281,Lampang,TH,84.99,,18.3333,99.5,Mrs Luis Guest House
1282,Dunmore Town,BS,76.98,,25.5,-76.65,Coral Sands Hotel
1283,Wajir,KE,84.13,,1.7471,40.0573,Al-bustan Hotel And Restaurant.
1285,Muncar,ID,75.45,,-8.4333,114.3333,Zaky Homestay
1286,Acarau,BR,77.99,,-2.8856,-40.12,castelo pizzaria
1289,Ciudad Guayana,VE,87.01,,8.3533,-62.6528,Hotel Las Americas
1290,Uchiza,PE,75.0,,-8.4592,-76.4633,Hotel San Pedro
1291,Soure,BR,75.76,,-0.7167,-48.5233,Casarão
1292,Labuhan,ID,77.9,,-6.8844,112.2051,PT PPI Lamongan Tambak C
1293,Kieta,PG,83.61,,-6.2167,155.6333,Uruna Bay Retreat
1295,Totness,SR,76.44,,5.8833,-56.3167,STAATS LOGEERGEBOUW TOTNESS
1296,Biltine,TD,83.53,,14.5333,20.9167,Hôtel Trois Étoiles de Biltine
1297,Samarai,PG,83.3,,-10.6167,150.6667,Nuli Sapi
1298,Tomatlan,MX,84.58,,19.9333,-105.25,Norma franco
1299,Auki,SB,84.85,,-8.7676,160.7034,Auki Motel
1307,Maningrida,AU,82.11,,-12.0667,134.2667,Dhukurrdji Lodge
1308,Sinnamary,GF,76.96,,5.3833,-52.95,ALETHEIA Appartement Sinnamary
1311,Manta,EC,80.6,,-0.95,-80.7333,Balandra Hotel
1318,Bonfim,BR,79.7,,3.0833,-59.95,
1319,Mayor Pablo Lagerenza,PY,81.28,,-19.9309,-60.7718,
1323,Kirakira,SB,84.29,,-10.4544,161.9205,SanBiz Lodge
1327,Moranbah,AU,77.5,,-22.0016,148.0466,Direct Hotels - Monterey Moranbah
1333,Dingle,PH,77.49,,10.9995,122.6711,SEGAYA PROPERTY
1336,Bahia Honda,CU,81.54,,22.9036,-83.1592,Casa Gualberto - Deysi
1344,Porto Novo,BJ,80.6,,6.4965,2.6036,Tour Eiffel Hotel Benin
1345,Celestun,MX,82.96,,20.8667,-90.4,Posada Lilia
1349,Marsh Harbour,BS,76.32,,26.5412,-77.0636,Abaco Beach Resort
1352,Biak,ID,77.25,,-0.9131,122.8766,Penginapan Kim
1356,Satipo,PE,75.09,,-11.2522,-74.6386,Hotel Mayros
1357,Lom Sak,TH,78.51,,16.7798,101.2422,บ้านวรฉัตร หล่มสัก
1360,Avarua,CK,86.0,,-21.2078,-159.775,Paradise Inn
1364,Touros,BR,78.8,,-5.1989,-35.4608,INN NEW HORIZON
1369,Atuona,PF,80.33,,-9.8,-139.0333,Villa Enata
1372,Vaini,TO,78.8,,-21.2,-175.2,Keleti Beach Resort
1374,Yaan,NG,78.8,,7.3833,8.5667,
1379,Hithadhoo,MV,82.53,,-0.6,73.0833,Scoop Guest House
1382,Vanimo,PG,81.91,,-2.6741,141.3028,Vahmoneh Lodge Vanimo
1384,Natal,BR,80.6,,-5.795,-35.2094,Villa Park Hotel | Natal
1386,Bonthe,SL,78.37,,7.5264,-12.505,Bonthe Holiday Village
1389,Rikitea,PF,79.54,,-23.1203,-134.9692,Pension Maro'i
1393,Puerto Ayora,EC,82.4,,-0.7393,-90.3518,Finch Bay Galapagos Hotel
1394,Vadgaon,IN,81.77,,20.9402,74.8712,Hostel No 1
1398,Kulhudhuffushi,MV,82.62,,6.6221,73.07,Haajy Guest House 1
1404,Umm Kaddadah,SD,80.13,,13.6017,26.6876,
1405,Mahibadhoo,MV,82.0,,3.7833,72.9667,Omadhoo Inn
1408,Grand Gaube,MU,77.0,,-20.0064,57.6608,Veranda Paul et Virginie Hotel & Spa
1413,Bambous Virieux,MU,77.0,,-20.3428,57.7575,Casa Tia Villa
1416,Tecpan,GT,75.2,,14.7623,-90.9947,San Ricardo Restaurante y Hotel
1418,Mahebourg,MU,75.2,,-20.4081,57.7,Shandrani Beachcomber Resort & Spa
1420,Saint-Pierre,RE,78.8,,-21.3393,55.4781,Lindsey Hôtel
1421,Sai Buri,TH,75.63,,6.7013,101.6168,ร้าน​ เวดดิ้ง
1425,Tual,ID,83.03,,-5.6667,132.75,Grand Vilia Hotel
1428,Kapaa,US,79.0,,22.0752,-159.319,Sheraton Kauai Resort at Coconut Beach
1430,Port Blair,IN,80.6,,11.6667,92.75,Welcomhotel Bay Island Port Blair
1435,Rio Branco,BR,78.8,,-9.9747,-67.81,João Paulo Hotel
1443,Concordia,AR,81.0,,-31.393,-58.0209,Palmar Hotel Casino
1449,Kulim,MY,79.0,,5.365,100.5618,Hotel Kulim
1452,Bubaque,GW,77.77,,11.2833,-15.8333,"Casa Dora, Bubaque"
1457,Mitsamiouli,KM,82.49,,-11.3847,43.2844,Foyer ADM
1464,Cozumel,MX,82.4,,20.5083,-86.9458,Cozumel Palace® All Inclusive Resort
1468,Butaritari,KI,81.46,,3.0707,172.7902,Isles Sunset Lodge
1470,Iralaya,HN,84.2,,15.0,-83.2333,Iglesia morava renovada
1472,Faanui,PF,83.61,,-16.4833,-151.75,Bora-Bora Pearl Beach Resort & Spa
1473,Saint-Philippe,RE,78.8,,-21.3585,55.7679,"Chambres d'hôte ""La Trinité"""
1477,Ouegoa,NC,81.18,,-20.35,164.4333,
1479,Cabedelo,BR,75.2,,-6.9811,-34.8339,Hotel Pigalle
1480,Arraial Do Cabo,BR,78.8,,-22.9661,-42.0278,Pousada Porto Praia
1482,Sorong,ID,78.62,,-0.8833,131.25,The Waigo Hotel
1484,Ugoofaaru,MV,82.63,,5.6667,73.0,Ungoofaaru Inn
1485,Ibotirama,BR,85.48,,-12.1853,-43.2206,Serra do Rio Hotel
1491,Port-Gentil,GA,78.8,,-0.7193,8.7815,Fengshui Residence
1492,Hilo,US,84.2,,19.7297,-155.09,Hilo Hawaiian Hotel
1495,Lorengau,PG,81.45,,-2.0226,147.2712,Lorengau Harbourside Hotel
1502,Inirida,CO,77.2,,3.8653,-67.9239,Fuente del Guania Hotel de Lujo
1503,Mangrol,IN,78.17,,21.1167,70.1167,Hotel The Royal Honours
1508,Tiarei,PF,87.01,,-17.5333,-149.3333,Le Rocher de Tahiti
1509,Noumea,NC,84.2,,-22.2763,166.4572,Hôtel Le Lagon
1510,Salvador,SV,87.8,,13.8333,-88.9167,Chico's Ranch
1511,Georgetown,MY,79.0,,5.4112,100.3354,Cititel Penang
1515,Alenquer,BR,77.0,,-1.9417,-54.7383,Josilene Castro
1516,Phuket,TH,84.99,,8.0,98.25,The Surin Phuket
1524,Peruibe,BR,76.32,,-24.32,-46.9983,Hotel Pousada Xapuri
1526,Kroya,ID,76.95,,-7.6331,109.2461,RUSTANTO Fam
1529,Innisfail,AU,81.18,,-17.5333,146.0333,Moondarra Motel
1534,Padang,ID,75.2,,-0.9492,100.3543,Mercure Padang
1535,Alofi,NU,86.0,,-19.0595,-169.9187,Taloa Heights
1540,Mokolo,CM,81.19,,10.7398,13.8019,Diwa Hôtel
1542,Caravelas,BR,75.79,,-17.7125,-39.2481,Pousada dos Navegantes
1545,Buala,SB,85.01,,-8.145,159.5921,Maringe Lagoon Lodge
1551,Calderitas,MX,84.2,,18.55,-88.25,Hotel Hacienda Campestre
1561,Morrope,PE,75.2,,-6.5417,-80.0111,Hipolito santamaria
1565,Kyabe,TD,86.43,,9.4515,18.9449,
1567,Honiara,SB,84.67,,-9.4333,159.95,Heritage Park Hotel
1568,Namatanai,PG,82.89,,-3.6667,152.4333,Namatanai Hotel
1574,Santa Maria,BR,75.2,,-29.6842,-53.8069,Hotel Morotin
1582,Mecca,SA,75.67,,21.4267,39.8261,"Makkah Clock Royal Tower, A Fairmont Hotel"
1583,Carutapera,BR,75.47,,-1.195,-46.02,Lidera
1589,Gainesville,US,75.2,,29.6516,-82.3248,Holiday Inn Gainesville-University Ctr
1591,Abadan,IR,75.2,,30.3392,48.3043,سالن مراسمات خانه معلم
1595,Cape Canaveral,US,75.2,,28.4058,-80.6048,Residence Inn by Marriott Cape Canaveral Cocoa Beach
1601,Denpasar,ID,78.8,,-8.65,115.2167,ASTON Denpasar Hotel & Convention Center
1610,Dicabisagan,PH,76.15,,17.0818,122.4157,Nancy Montanes Bernardo
1611,Buraydah,SA,78.8,,26.326,43.975,فندق راحة السلام
1613,Nhulunbuy,AU,78.8,,-12.2333,136.7667,East Arnhem Real Estate
1615,Conway,US,78.01,,35.0887,-92.4421,"Country Inn & Suites by Radisson, Conway, AR"
1616,Palauig,PH,79.7,,15.435,119.9045,Myhousebythesea
1623,Gorontalo,ID,76.39,,0.5412,123.0595,Maqna Hotel by Prasanthi
1625,Kavaratti,IN,82.02,,10.5669,72.642,Hotels in Lakshadweep Islands
1627,Axim,GH,79.81,,4.8699,-2.2405,AXIM BEACH RESORT AND SPA
1631,Batticaloa,LK,78.73,,7.7102,81.6924,Grand Star Guest House
1633,Madang,PG,79.41,,-5.2246,145.7966,Comfort Inn Hotel
1634,Omboue,GA,76.89,,-1.5746,9.2618,Hotel Olako
1646,Lakatoro,VU,82.2,,-16.0999,167.4164,Lakatoro Palm Lodge
1651,Makakilo City,US,80.6,,21.3469,-158.0858,Marriott's Ko Olina Beach Club
1654,Jati,PK,76.33,,24.3539,68.2671,Cafe Lala Rehan Restaurant
1655,Riyadh,SA,87.8,,24.6877,46.7219,InterContinental Riyadh
1656,Santa Clara,CU,86.0,,22.4,-79.9667,El Carmen
1657,Kupang,ID,75.2,,-10.1667,123.5833,Hotel On The Rock by Prasanthi
1659,Sur,OM,76.15,,22.5667,59.5289,Sur Plaza Hotel
1663,Olinda,BR,77.0,,-8.0089,-34.8553,Hotel Albergue de Olinda
1664,Souillac,MU,75.2,,-20.5167,57.5167,Shanti Maurice Resort & Spa
1668,Dhidhdhoo,MV,82.69,,6.8833,73.1,Dhidhoo beach
1670,Ambon,ID,77.0,,-3.6954,128.1814,Swiss-Belhotel Ambon
1672,Bathsheba,BB,78.8,,13.2167,-59.5167,Atlantis Hotel
1683,Lamar,US,78.8,,33.6668,-95.5836,Kings Inn Paris TX
1684,Atambua,ID,75.85,,-9.1061,124.8925,Pastori 1 Jemaat Polycarpus
1685,Buchanan,LR,77.52,,5.8808,-10.0467,Kamaneahn Hotel Inc
1686,Pijijiapan,MX,85.82,,15.7011,-93.23,Hotel Rosita
1687,Mersing,MY,75.2,,2.4312,103.8405,Timotel Hotel
1688,Cairns,AU,79.0,,-16.9167,145.7667,Mantra Trilogy Cairns
1689,Yako,BF,85.42,,12.9667,-2.2667,Ecole de Sibega
1692,Manokwari,ID,79.5,,-0.8667,134.0833,Swiss Belhotel Manokwari
1694,Champerico,GT,87.8,,14.3,-91.9167,"Hotel y restaurante ""El Diamante"""
1697,Daru,PG,80.89,,-9.0763,143.2092,Daru Lodge
1698,Kavieng,PG,82.67,,-2.5744,150.7967,Nusa Island Retreat
1703,Arawa,PG,84.52,,-6.2132,155.5367,Coastline Guest House
1704,Rincon,US,75.0,,32.296,-81.2354,Days Inn Rincon
1711,Pontianak,ID,75.2,,-0.0333,109.3333,Aston Pontianak Hotel & Convention Center
1713,Mount Isa,AU,77.0,,-20.7333,139.5,ibis Styles Mt Isa Verona
1720,Sola,VU,78.8,,-13.8833,167.55,Leumerus Bungalows
1727,Jaciara,BR,75.09,,-15.9653,-54.9683,Taba Hotel
1729,Bida,NG,82.8,,9.0833,6.0167,Royal Suite
1733,Bugama,NG,76.48,,4.7341,6.8635,Johnbull polo
1734,Mahina,PF,87.01,,-17.5065,-149.489,Guest Beach Bungalow Tahiti
1735,Hobyo,SO,77.74,,5.3505,48.5268,Halane Hotel and Restaurent
1737,Ballina,AU,75.2,,-28.8667,153.5667,Ramada Hotel & Suites by Wyndham Ballina Byron
1740,Vila Velha,BR,80.6,,-20.3297,-40.2925,Quality Suites Vila Velha
1742,Sibolga,ID,75.49,,1.7427,98.7792,Hotel Syariah CN Darussalam
1745,Ambilobe,MG,75.58,,-13.2,49.05,Hôtel & Restaurant DIANA Ambilobe
1746,Poya,NC,81.64,,-21.35,165.15,
1747,Manadhoo,MV,82.98,,5.7667,73.3833,Vevu Guesthouse
1750,Touho,NC,77.67,,-20.7833,165.2333,Auberge Timay Evasion
1759,Acapulco,MX,82.4,,16.8634,-99.8901,HS Hotsson Smart Acapulco
1761,Carinhanha,BR,78.58,,-14.3047,-43.765,Hotel Canoeiro
1763,Vao,NC,76.19,,-22.6667,167.4833,Hotel Kou-Bugny
1765,Naranjal,EC,84.2,,-2.6667,-79.6167,Media Naranja
1769,Uribia,CO,83.97,,11.7139,-72.266,Hotel Uribia
1775,Huntington,US,78.8,,38.4193,-82.4452,Ramada Limited Huntington
1776,Isangel,VU,78.8,,-19.55,169.2667,Volcano Sea View Tree House
1777,Conakry,GN,80.6,,9.538,-13.6773,Riviera Royal Hotel
1782,Pekan,MY,75.2,,3.4836,103.3996,Pekan Budget Hotel
1784,Florianopolis,BR,77.0,,-27.6146,-48.5012,Hotel Boutique Quinta das Videiras
1785,Salinopolis,BR,77.11,,-0.6136,-47.3561,Salinas Park Resort Maçarico AP101
1795,Lazaro Cardenas,MX,79.57,,17.9583,-102.2,Hotel Quinta Antigua
1797,San Patricio,US,84.2,,28.017,-97.5169,"Motel 6 Sinton, TX"
1799,Gizo,SB,83.68,,-8.103,156.8419,Imagination Island
1800,Parana,AR,79.0,,-31.732,-60.5238,Howard Johnson Plaza Hotel Mayorazgo
1803,Matara,LK,75.87,,5.9485,80.5353,Amaloh Boutique Resort
1806,Sao Joao Da Barra,BR,80.6,,-21.6403,-41.0511,Pousada Porto De Canoas
1807,Piacabucu,BR,78.66,,-10.4056,-36.4344,Piaçabuçu News
1811,Harper,LR,78.22,,4.375,-7.7169,Screensaver
1817,Tres De Maio,BR,86.0,,-27.7733,-54.24,Hotel SABOR e ACONCHEGO
1821,Puerto Salgar,CO,78.71,,5.462999999999999,-74.6544,Hotel Confort
1824,Gold Coast,AU,79.0,,-28.0,153.4333,Mantra Towers of Chevron Surfers Paradise
1826,Roebourne,AU,81.16,,-20.7833,117.1333,Harding River Caravan Park
1828,Yellandu,IN,76.28,,17.6,80.3333,Chekuri Satyanarayana
1831,Bucerias,MX,77.0,,20.75,-105.3333,Villa del Palmar Flamingos Beach Resort & Spa Riviera Nayarit
1832,Maine-Soroa,NE,82.08,,13.2114,12.0241,Complexe
1836,San Carlos Del Zulia,VE,78.91,,9.0,-71.9135,Hotel El Manantial
1838,Soyo,AO,79.14,,-6.1349,12.3689,Hotel Mpampa
1839,Salalah,OM,78.8,,17.0151,54.0924,HAMDAN PLAZA HOTEL SALALAH
1844,Vung Tau,VN,79.07,,10.345999999999998,107.0843,Green hotel
1853,Manggar,ID,77.27,,-2.8833,108.2667,Guest Hotel
1866,Bosaso,SO,76.53,,11.2842,49.1816,Red Sea Hotel
1869,San Cristobal,VE,82.4,,7.7669,-72.225,Posada Villaven C.A.
1875,Saint-Georges,GD,80.6,,12.0564,-61.7485,Siesta Hotel
1877,Almenara,BR,78.8,,-16.1836,-40.6944,Pousada Estância
1886,Poum,NC,80.24,,-20.2333,164.0167,Gîte kajeon
1887,Nanakuli,US,80.01,,21.3906,-158.1547,Camp Pālehua
1889,Bengkulu,ID,76.14,,-3.8004,102.2655,Grage Hotel Bengkulu
1890,Tautira,PF,87.01,,-17.7333,-149.15,Pension Oaoa
1892,Riohacha,CO,81.23,,11.5444,-72.9072,Hotel Taroa
1895,Diapaga,BF,88.45,,12.0708,1.7889,
1897,Santiago Del Estero,AR,81.48,,-27.7951,-64.2615,Apartamentos Castelli 90
1898,Puerto Escondido,MX,86.0,,15.85,-97.0667,Aldea del Bazar Hotel and Spa
1899,Mareeba,AU,79.0,,-17.0,145.4333,Trinity Plains Tourist Park
1902,Atar,MR,81.18,,20.5169,-13.0499,Oumou Elghoura
1906,Bandarbeyla,SO,75.94,,9.4942,50.8122,JABIR HOTEL
1911,Katobu,ID,77.67,,-4.9408,122.5276,La Ode Husein
1912,La Orilla,MX,79.48,,17.9833,-102.2333,Baymont by Wyndham Lazaro Cardenas
1916,Lagunas,PE,76.1,,-5.2269,-75.6753,Hospedaje Eco
1918,Kahului,US,80.6,,20.8947,-156.47,Maui Seaside Hotel
1919,San Jose De Guanipa,VE,88.16,,8.8872,-64.1651,HOTEL 283 SUITES
1922,Pemangkat,ID,75.06,,1.1667,108.9667,Kost H.Syamsuddin
1925,Emerald,AU,79.0,,-23.5333,148.1667,The Irish Village
1926,Djibo,BF,87.76,,14.1022,-1.6306,Centre Des Ressources DPENA
1934,Pilar,BR,77.0,,-9.5972,-35.9567,Pousada e churrascaria Manguaba
1938,Quatre Cocos,MU,77.0,,-20.2078,57.7625,Emeraude Beach Attitude Hotel
1939,San Martin,AR,75.2,,-33.080999999999996,-68.4681,Club El Pelícano
1944,Kpandae,GH,82.8,,8.4689,-0.0113,S. Amaski Guest House
1946,Banda Aceh,ID,77.99,,5.5577,95.3222,Sulthan Hotel International
1950,Diffa,NE,84.16,,13.3154,12.6113,ProDAF/Diffa
1957,Fuerte Olimpo,PY,84.22,,-21.0415,-57.8738,Hospedaje DAMI
1958,Yeppoon,AU,78.8,,-23.1333,150.7333,Villa Mar Colina
1961,Lampang,TH,84.99,,18.3333,99.5,Mrs Luis Guest House
1962,Dunmore Town,BS,76.98,,25.5,-76.65,Coral Sands Hotel
1963,Wajir,KE,84.13,,1.7471,40.0573,Al-bustan Hotel And Restaurant.
1965,Muncar,ID,75.45,,-8.4333,114.3333,Zaky Homestay
1966,Acarau,BR,77.99,,-2.8856,-40.12,castelo pizzaria
1969,Ciudad Guayana,VE,87.01,,8.3533,-62.6528,Hotel Las Americas
1970,Uchiza,PE,75.0,,-8.4592,-76.4633,Hotel San Pedro
1971,Soure,BR,75.76,,-0.7167,-48.5233,Casarão
1972,Labuhan,ID,77.9,,-6.8844,112.2051,PT PPI Lamongan Tambak C
1973,Kieta,PG,83.61,,-6.2167,155.6333,Uruna Bay Retreat
1975,Totness,SR,76.44,,5.8833,-56.3167,STAATS LOGEERGEBOUW TOTNESS
1976,Biltine,TD,83.53,,14.5333,20.9167,Hôtel Trois Étoiles de Biltine
1977,Samarai,PG,83.3,,-10.6167,150.6667,Nuli Sapi
1978,Tomatlan,MX,84.58,,19.9333,-105.25,Norma franco
1979,Auki,SB,84.85,,-8.7676,160.7034,Auki Motel
1987,Maningrida,AU,82.11,,-12.0667,134.2667,Dhukurrdji Lodge
1988,Sinnamary,GF,76.96,,5.3833,-52.95,ALETHEIA Appartement Sinnamary
1991,Manta,EC,80.6,,-0.95,-80.7333,Balandra Hotel
1998,Bonfim,BR,79.7,,3.0833,-59.95,
1999,Mayor Pablo Lagerenza,PY,81.28,,-19.9309,-60.7718,
2003,Kirakira,SB,84.29,,-10.4544,161.9205,SanBiz Lodge
2007,Moranbah,AU,77.5,,-22.0016,148.0466,Direct Hotels - Monterey Moranbah
2013,Dingle,PH,77.49,,10.9995,122.6711,SEGAYA PROPERTY
2016,Bahia Honda,CU,81.54,,22.9036,-83.1592,Casa Gualberto - Deysi
2024,Porto Novo,BJ,80.6,,6.4965,2.6036,Tour Eiffel Hotel Benin
2025,Celestun,MX,82.96,,20.8667,-90.4,Posada Lilia
2029,Marsh Harbour,BS,76.32,,26.5412,-77.0636,Abaco Beach Resort
2032,Biak,ID,77.25,,-0.9131,122.8766,Penginapan Kim
2036,Satipo,PE,75.09,,-11.2522,-74.6386,Hotel Mayros
2037,Lom Sak,TH,78.51,,16.7798,101.2422,บ้านวรฉัตร หล่มสัก
2040,Avarua,CK,86.0,broken clouds,-21.2078,-159.775,Paradise Inn
2044,Touros,BR,78.8,broken clouds,-5.1989,-35.4608,INN NEW HORIZON
2049,Atuona,PF,80.33,overcast clouds,-9.8,-139.0333,Villa Enata
2052,Vaini,TO,78.8,heavy intensity rain,-21.2,-175.2,Keleti Beach Resort
2054,Yaan,NG,78.8,overcast clouds,7.3833,8.5667,
2059,Hithadhoo,MV,82.53,overcast clouds,-0.6,73.0833,Scoop Guest House
2062,Vanimo,PG,81.91,overcast clouds,-2.6741,141.3028,Vahmoneh Lodge Vanimo
2064,Natal,BR,80.6,scattered clouds,-5.795,-35.2094,Villa Park Hotel | Natal
2066,Bonthe,SL,78.37,overcast clouds,7.5264,-12.505,Bonthe Holiday Village
2069,Rikitea,PF,79.54,clear sky,-23.1203,-134.9692,Pension Maro'i
2073,Puerto Ayora,EC,82.4,light rain,-0.7393,-90.3518,Finch Bay Galapagos Hotel
2074,Vadgaon,IN,81.77,clear sky,20.9402,74.8712,Hostel No 1
2078,Kulhudhuffushi,MV,82.62,overcast clouds,6.6221,73.07,Haajy Guest House 1
2084,Umm Kaddadah,SD,80.13,few clouds,13.6017,26.6876,
2085,Mahibadhoo,MV,82.0,overcast clouds,3.7833,72.9667,Omadhoo Inn
2088,Grand Gaube,MU,77.0,broken clouds,-20.0064,57.6608,Veranda Paul et Virginie Hotel & Spa
2093,Bambous Virieux,MU,77.0,few clouds,-20.3428,57.7575,Casa Tia Villa
2096,Tecpan,GT,75.2,few clouds,14.7623,-90.9947,San Ricardo Restaurante y Hotel
2098,Mahebourg,MU,75.2,few clouds,-20.4081,57.7,Shandrani Beachcomber Resort & Spa
2100,Saint-Pierre,RE,78.8,clear sky,-21.3393,55.4781,Lindsey Hôtel
2101,Sai Buri,TH,75.63,overcast clouds,6.7013,101.6168,ร้าน​ เวดดิ้ง
2105,Tual,ID,83.03,overcast clouds,-5.6667,132.75,Grand Vilia Hotel
2108,Kapaa,US,79.0,overcast clouds,22.0752,-159.319,Sheraton Kauai Resort at Coconut Beach
2110,Port Blair,IN,80.6,clear sky,11.6667,92.75,Welcomhotel Bay Island Port Blair
2115,Rio Branco,BR,78.8,broken clouds,-9.9747,-67.81,João Paulo Hotel
2123,Concordia,AR,81.0,scattered clouds,-31.393,-58.0209,Palmar Hotel Casino
2129,Kulim,MY,79.0,mist,5.365,100.5618,Hotel Kulim
2132,Bubaque,GW,77.77,scattered clouds,11.2833,-15.8333,"Casa Dora, Bubaque"
2137,Mitsamiouli,KM,82.49,scattered clouds,-11.3847,43.2844,Foyer ADM
2144,Cozumel,MX,82.4,scattered clouds,20.5083,-86.9458,Cozumel Palace® All Inclusive Resort
2148,Butaritari,KI,81.46,light rain,3.0707,172.7902,Isles Sunset Lodge
2150,Iralaya,HN,84.2,few clouds,15.0,-83.2333,Iglesia morava renovada
2152,Faanui,PF,83.61,overcast clouds,-16.4833,-151.75,Bora-Bora Pearl Beach Resort & Spa
2153,Saint-Philippe,RE,78.8,light rain,-21.3585,55.7679,"Chambres d'hôte ""La Trinité"""
2157,Ouegoa,NC,81.18,broken clouds,-20.35,164.4333,
2159,Cabedelo,BR,75.2,overcast clouds,-6.9811,-34.8339,Hotel Pigalle
2160,Arraial Do Cabo,BR,78.8,clear sky,-22.9661,-42.0278,Pousada Porto Praia
2162,Sorong,ID,78.62,overcast clouds,-0.8833,131.25,The Waigo Hotel
2164,Ugoofaaru,MV,82.63,broken clouds,5.6667,73.0,Ungoofaaru Inn
2165,Ibotirama,BR,85.48,scattered clouds,-12.1853,-43.2206,Serra do Rio Hotel
2171,Port-Gentil,GA,78.8,scattered clouds,-0.7193,8.7815,Fengshui Residence
2172,Hilo,US,84.2,scattered clouds,19.7297,-155.09,Hilo Hawaiian Hotel
2175,Lorengau,PG,81.45,light rain,-2.0226,147.2712,Lorengau Harbourside Hotel
2182,Inirida,CO,77.2,broken clouds,3.8653,-67.9239,Fuente del Guania Hotel de Lujo
2183,Mangrol,IN,78.17,clear sky,21.1167,70.1167,Hotel The Royal Honours
2188,Tiarei,PF,87.01,broken clouds,-17.5333,-149.3333,Le Rocher de Tahiti
2189,Noumea,NC,84.2,clear sky,-22.2763,166.4572,Hôtel Le Lagon
2190,Salvador,SV,87.8,few clouds,13.8333,-88.9167,Chico's Ranch
2191,Georgetown,MY,79.0,mist,5.4112,100.3354,Cititel Penang
2195,Alenquer,BR,77.0,moderate rain,-1.9417,-54.7383,Josilene Castro
2196,Phuket,TH,84.99,scattered clouds,8.0,98.25,The Surin Phuket
2204,Peruibe,BR,76.32,overcast clouds,-24.32,-46.9983,Hotel Pousada Xapuri
2206,Kroya,ID,76.95,overcast clouds,-7.6331,109.2461,RUSTANTO Fam
2209,Innisfail,AU,81.18,broken clouds,-17.5333,146.0333,Moondarra Motel
2214,Padang,ID,75.2,broken clouds,-0.9492,100.3543,Mercure Padang
2215,Alofi,NU,86.0,overcast clouds,-19.0595,-169.9187,Taloa Heights
2220,Mokolo,CM,81.19,broken clouds,10.7398,13.8019,Diwa Hôtel
2222,Caravelas,BR,75.79,clear sky,-17.7125,-39.2481,Pousada dos Navegantes
2225,Buala,SB,85.01,overcast clouds,-8.145,159.5921,Maringe Lagoon Lodge
2231,Calderitas,MX,84.2,few clouds,18.55,-88.25,Hotel Hacienda Campestre
2241,Morrope,PE,75.2,clear sky,-6.5417,-80.0111,Hipolito santamaria
2245,Kyabe,TD,86.43,scattered clouds,9.4515,18.9449,
2247,Honiara,SB,84.67,scattered clouds,-9.4333,159.95,Heritage Park Hotel
2248,Namatanai,PG,82.89,light rain,-3.6667,152.4333,Namatanai Hotel
2254,Santa Maria,BR,75.2,few clouds,-29.6842,-53.8069,Hotel Morotin
2262,Mecca,SA,75.67,clear sky,21.4267,39.8261,"Makkah Clock Royal Tower, A Fairmont Hotel"
2263,Carutapera,BR,75.47,moderate rain,-1.195,-46.02,Lidera
2269,Gainesville,US,75.2,clear sky,29.6516,-82.3248,Holiday Inn Gainesville-University Ctr
2271,Abadan,IR,75.2,clear sky,30.3392,48.3043,سالن مراسمات خانه معلم
2275,Cape Canaveral,US,75.2,clear sky,28.4058,-80.6048,Residence Inn by Marriott Cape Canaveral Cocoa Beach
2281,Denpasar,ID,78.8,scattered clouds,-8.65,115.2167,ASTON Denpasar Hotel & Convention Center
2290,Dicabisagan,PH,76.15,scattered clouds,17.0818,122.4157,Nancy Montanes Bernardo
2291,Buraydah,SA,78.8,clear sky,26.326,43.975,فندق راحة السلام
2293,Nhulunbuy,AU,78.8,overcast clouds,-12.2333,136.7667,East Arnhem Real Estate
2295,Conway,US,78.01,clear sky,35.0887,-92.4421,"Country Inn & Suites by Radisson, Conway, AR"
2296,Palauig,PH,79.7,scattered clouds,15.435,119.9045,Myhousebythesea
2303,Gorontalo,ID,76.39,overcast clouds,0.5412,123.0595,Maqna Hotel by Prasanthi
2305,Kavaratti,IN,82.02,broken clouds,10.5669,72.642,Hotels in Lakshadweep Islands
2307,Axim,GH,79.81,light rain,4.8699,-2.2405,AXIM BEACH RESORT AND SPA
2311,Batticaloa,LK,78.73,broken clouds,7.7102,81.6924,Grand Star Guest House
2313,Madang,PG,79.41,overcast clouds,-5.2246,145.7966,Comfort Inn Hotel
2314,Omboue,GA,76.89,overcast clouds,-1.5746,9.2618,Hotel Olako
2326,Lakatoro,VU,82.2,overcast clouds,-16.0999,167.4164,Lakatoro Palm Lodge
2331,Makakilo City,US,80.6,moderate rain,21.3469,-158.0858,Marriott's Ko Olina Beach Club
2334,Jati,PK,76.33,few clouds,24.3539,68.2671,Cafe Lala Rehan Restaurant
2335,Riyadh,SA,87.8,clear sky,24.6877,46.7219,InterContinental Riyadh
2336,Santa Clara,CU,86.0,light rain,22.4,-79.9667,El Carmen
2337,Kupang,ID,75.2,scattered clouds,-10.1667,123.5833,Hotel On The Rock by Prasanthi
2339,Sur,OM,76.15,clear sky,22.5667,59.5289,Sur Plaza Hotel
2343,Olinda,BR,77.0,broken clouds,-8.0089,-34.8553,Hotel Albergue de Olinda
2344,Souillac,MU,75.2,few clouds,-20.5167,57.5167,Shanti Maurice Resort & Spa
2348,Dhidhdhoo,MV,82.69,overcast clouds,6.8833,73.1,Dhidhoo beach
2350,Ambon,ID,77.0,scattered clouds,-3.6954,128.1814,Swiss-Belhotel Ambon
2352,Bathsheba,BB,78.8,scattered clouds,13.2167,-59.5167,Atlantis Hotel
2363,Lamar,US,78.8,clear sky,33.6668,-95.5836,Kings Inn Paris TX
2364,Atambua,ID,75.85,scattered clouds,-9.1061,124.8925,Pastori 1 Jemaat Polycarpus
2365,Buchanan,LR,77.52,overcast clouds,5.8808,-10.0467,Kamaneahn Hotel Inc
2366,Pijijiapan,MX,85.82,clear sky,15.7011,-93.23,Hotel Rosita
2367,Mersing,MY,75.2,light rain,2.4312,103.8405,Timotel Hotel
2368,Cairns,AU,79.0,overcast clouds,-16.9167,145.7667,Mantra Trilogy Cairns
2369,Yako,BF,85.42,overcast clouds,12.9667,-2.2667,Ecole de Sibega
2372,Manokwari,ID,79.5,heavy intensity rain,-0.8667,134.0833,Swiss Belhotel Manokwari
2374,Champerico,GT,87.8,scattered clouds,14.3,-91.9167,"Hotel y restaurante ""El Diamante"""
2377,Daru,PG,80.89,overcast clouds,-9.0763,143.2092,Daru Lodge
2378,Kavieng,PG,82.67,overcast clouds,-2.5744,150.7967,Nusa Island Retreat
2383,Arawa,PG,84.52,overcast clouds,-6.2132,155.5367,Coastline Guest House
2384,Rincon,US,75.0,overcast clouds,32.296,-81.2354,Days Inn Rincon
2391,Pontianak,ID,75.2,broken clouds,-0.0333,109.3333,Aston Pontianak Hotel & Convention Center
2393,Mount Isa,AU,77.0,overcast clouds,-20.7333,139.5,ibis Styles Mt Isa Verona
2400,Sola,VU,78.8,broken clouds,-13.8833,167.55,Leumerus Bungalows
2407,Jaciara,BR,75.09,overcast clouds,-15.9653,-54.9683,Taba Hotel
2409,Bida,NG,82.8,overcast clouds,9.0833,6.0167,Royal Suite
2413,Bugama,NG,76.48,overcast clouds,4.7341,6.8635,Johnbull polo
2414,Mahina,PF,87.01,broken clouds,-17.5065,-149.489,Guest Beach Bungalow Tahiti
2415,Hobyo,SO,77.74,clear sky,5.3505,48.5268,Halane Hotel and Restaurent
2417,Ballina,AU,75.2,clear sky,-28.8667,153.5667,Ramada Hotel & Suites by Wyndham Ballina Byron
2420,Vila Velha,BR,80.6,clear sky,-20.3297,-40.2925,Quality Suites Vila Velha
2422,Sibolga,ID,75.49,overcast clouds,1.7427,98.7792,Hotel Syariah CN Darussalam
2425,Ambilobe,MG,75.58,overcast clouds,-13.2,49.05,Hôtel & Restaurant DIANA Ambilobe
2426,Poya,NC,81.64,few clouds,-21.35,165.15,
2427,Manadhoo,MV,82.98,overcast clouds,5.7667,73.3833,Vevu Guesthouse
2430,Touho,NC,77.67,overcast clouds,-20.7833,165.2333,Auberge Timay Evasion
2439,Acapulco,MX,82.4,few clouds,16.8634,-99.8901,HS Hotsson Smart Acapulco
2441,Carinhanha,BR,78.58,few clouds,-14.3047,-43.765,Hotel Canoeiro
2443,Vao,NC,76.19,overcast clouds,-22.6667,167.4833,Hotel Kou-Bugny
2445,Naranjal,EC,84.2,light rain,-2.6667,-79.6167,Media Naranja
2449,Uribia,CO,83.97,broken clouds,11.7139,-72.266,Hotel Uribia
2455,Huntington,US,78.8,few clouds,38.4193,-82.4452,Ramada Limited Huntington
2456,Isangel,VU,78.8,few clouds,-19.55,169.2667,Volcano Sea View Tree House
2457,Conakry,GN,80.6,clear sky,9.538,-13.6773,Riviera Royal Hotel
2462,Pekan,MY,75.2,scattered clouds,3.4836,103.3996,Pekan Budget Hotel
2464,Florianopolis,BR,77.0,broken clouds,-27.6146,-48.5012,Hotel Boutique Quinta das Videiras
2465,Salinopolis,BR,77.11,overcast clouds,-0.6136,-47.3561,Salinas Park Resort Maçarico AP101
2475,Lazaro Cardenas,MX,79.57,clear sky,17.9583,-102.2,Hotel Quinta Antigua
2477,San Patricio,US,84.2,broken clouds,28.017,-97.5169,"Motel 6 Sinton, TX"
2479,Gizo,SB,83.68,overcast clouds,-8.103,156.8419,Imagination Island
2480,Parana,AR,79.0,broken clouds,-31.732,-60.5238,Howard Johnson Plaza Hotel Mayorazgo
2483,Matara,LK,75.87,moderate rain,5.9485,80.5353,Amaloh Boutique Resort
2486,Sao Joao Da Barra,BR,80.6,clear sky,-21.6403,-41.0511,Pousada Porto De Canoas
2487,Piacabucu,BR,78.66,clear sky,-10.4056,-36.4344,Piaçabuçu News
2491,Harper,LR,78.22,light rain,4.375,-7.7169,Screensaver
2497,Tres De Maio,BR,86.0,clear sky,-27.7733,-54.24,Hotel SABOR e ACONCHEGO
2501,Puerto Salgar,CO,78.71,broken clouds,5.462999999999999,-74.6544,Hotel Confort
2504,Gold Coast,AU,79.0,clear sky,-28.0,153.4333,Mantra Towers of Chevron Surfers Paradise
2506,Roebourne,AU,81.16,light rain,-20.7833,117.1333,Harding River Caravan Park
2508,Yellandu,IN,76.28,clear sky,17.6,80.3333,Chekuri Satyanarayana
2511,Bucerias,MX,77.0,broken clouds,20.75,-105.3333,Villa del Palmar Flamingos Beach Resort & Spa Riviera Nayarit
2512,Maine-Soroa,NE,82.08,overcast clouds,13.2114,12.0241,Complexe
2516,San Carlos Del Zulia,VE,78.91,overcast clouds,9.0,-71.9135,Hotel El Manantial
2518,Soyo,AO,79.14,overcast clouds,-6.1349,12.3689,Hotel Mpampa
2519,Salalah,OM,78.8,few clouds,17.0151,54.0924,HAMDAN PLAZA HOTEL SALALAH
2524,Vung Tau,VN,79.07,overcast clouds,10.345999999999998,107.0843,Green hotel
2533,Manggar,ID,77.27,overcast clouds,-2.8833,108.2667,Guest Hotel
2546,Bosaso,SO,76.53,clear sky,11.2842,49.1816,Red Sea Hotel
2549,San Cristobal,VE,82.4,scattered clouds,7.7669,-72.225,Posada Villaven C.A.
2555,Saint-Georges,GD,80.6,few clouds,12.0564,-61.7485,Siesta Hotel
2557,Almenara,BR,78.8,scattered clouds,-16.1836,-40.6944,Pousada Estância
2566,Poum,NC,80.24,scattered clouds,-20.2333,164.0167,Gîte kajeon
2567,Nanakuli,US,80.01,moderate rain,21.3906,-158.1547,Camp Pālehua
2569,Bengkulu,ID,76.14,overcast clouds,-3.8004,102.2655,Grage Hotel Bengkulu
2570,Tautira,PF,87.01,broken clouds,-17.7333,-149.15,Pension Oaoa
2572,Riohacha,CO,81.23,overcast clouds,11.5444,-72.9072,Hotel Taroa
2575,Diapaga,BF,88.45,clear sky,12.0708,1.7889,
2577,Santiago Del Estero,AR,81.48,overcast clouds,-27.7951,-64.2615,Apartamentos Castelli 90
2578,Puerto Escondido,MX,86.0,clear sky,15.85,-97.0667,Aldea del Bazar Hotel and Spa
2579,Mareeba,AU,79.0,overcast clouds,-17.0,145.4333,Trinity Plains Tourist Park
2582,Atar,MR,81.18,few clouds,20.5169,-13.0499,Oumou Elghoura
2586,Bandarbeyla,SO,75.94,clear sky,9.4942,50.8122,JABIR HOTEL
2591,Katobu,ID,77.67,scattered clouds,-4.9408,122.5276,La Ode Husein
2592,La Orilla,MX,79.48,clear sky,17.9833,-102.2333,Baymont by Wyndham Lazaro Cardenas
2596,Lagunas,PE,76.1,overcast clouds,-5.2269,-75.6753,Hospedaje Eco
2598,Kahului,US,80.6,scattered clouds,20.8947,-156.47,Maui Seaside Hotel
2599,San Jose De Guanipa,VE,88.16,broken clouds,8.8872,-64.1651,HOTEL 283 SUITES
2602,Pemangkat,ID,75.06,overcast clouds,1.1667,108.9667,Kost H.Syamsuddin
2605,Emerald,AU,79.0,clear sky,-23.5333,148.1667,The Irish Village
2606,Djibo,BF,87.76,overcast clouds,14.1022,-1.6306,Centre Des Ressources DPENA
2614,Pilar,BR,77.0,broken clouds,-9.5972,-35.9567,Pousada e churrascaria Manguaba
2618,Quatre Cocos,MU,77.0,few clouds,-20.2078,57.7625,Emeraude Beach Attitude Hotel
2619,San Martin,AR,75.2,broken clouds,-33.080999999999996,-68.4681,Club El Pelícano
2624,Kpandae,GH,82.8,overcast clouds,8.4689,-0.0113,S. Amaski Guest House
2626,Banda Aceh,ID,77.99,overcast clouds,5.5577,95.3222,Sulthan Hotel International
2630,Diffa,NE,84.16,overcast clouds,13.3154,12.6113,ProDAF/Diffa
2637,Fuerte Olimpo,PY,84.22,heavy intensity rain,-21.0415,-57.8738,Hospedaje DAMI
2638,Yeppoon,AU,78.8,clear sky,-23.1333,150.7333,Villa Mar Colina
2641,Lampang,TH,84.99,scattered clouds,18.3333,99.5,Mrs Luis Guest House
2642,Dunmore Town,BS,76.98,clear sky,25.5,-76.65,Coral Sands Hotel
2643,Wajir,KE,84.13,few clouds,1.7471,40.0573,Al-bustan Hotel And Restaurant.
2645,Muncar,ID,75.45,overcast clouds,-8.4333,114.3333,Zaky Homestay
2646,Acarau,BR,77.99,overcast clouds,-2.8856,-40.12,castelo pizzaria
2649,Ciudad Guayana,VE,87.01,broken clouds,8.3533,-62.6528,Hotel Las Americas
2650,Uchiza,PE,75.0,broken clouds,-8.4592,-76.4633,Hotel San Pedro
2651,Soure,BR,75.76,light rain,-0.7167,-48.5233,Casarão
2652,Labuhan,ID,77.9,overcast clouds,-6.8844,112.2051,PT PPI Lamongan Tambak C
2653,Kieta,PG,83.61,light rain,-6.2167,155.6333,Uruna Bay Retreat
2655,Totness,SR,76.44,light rain,5.8833,-56.3167,STAATS LOGEERGEBOUW TOTNESS
2656,Biltine,TD,83.53,scattered clouds,14.5333,20.9167,Hôtel Trois Étoiles de Biltine
2657,Samarai,PG,83.3,overcast clouds,-10.6167,150.6667,Nuli Sapi
2658,Tomatlan,MX,84.58,scattered clouds,19.9333,-105.25,Norma franco
2659,Auki,SB,84.85,broken clouds,-8.7676,160.7034,Auki Motel
2667,Maningrida,AU,82.11,overcast clouds,-12.0667,134.2667,Dhukurrdji Lodge
2668,Sinnamary,GF,76.96,scattered clouds,5.3833,-52.95,ALETHEIA Appartement Sinnamary
2671,Manta,EC,80.6,few clouds,-0.95,-80.7333,Balandra Hotel
2678,Bonfim,BR,79.7,overcast clouds,3.0833,-59.95,
2679,Mayor Pablo Lagerenza,PY,81.28,broken clouds,-19.9309,-60.7718,
2683,Kirakira,SB,84.29,broken clouds,-10.4544,161.9205,SanBiz Lodge
2687,Moranbah,AU,77.5,scattered clouds,-22.0016,148.0466,Direct Hotels - Monterey Moranbah
2693,Dingle,PH,77.49,light rain,10.9995,122.6711,SEGAYA PROPERTY
2696,Bahia Honda,CU,81.54,clear sky,22.9036,-83.1592,Casa Gualberto - Deysi
2704,Porto Novo,BJ,80.6,few clouds,6.4965,2.6036,Tour Eiffel Hotel Benin
2705,Celestun,MX,82.96,clear sky,20.8667,-90.4,Posada Lilia
2709,Marsh Harbour,BS,76.32,clear sky,26.5412,-77.0636,Abaco Beach Resort
2712,Biak,ID,77.25,overcast clouds,-0.9131,122.8766,Penginapan Kim
2716,Satipo,PE,75.09,broken clouds,-11.2522,-74.6386,Hotel Mayros
2717,Lom Sak,TH,78.51,broken clouds,16.7798,101.2422,บ้านวรฉัตร หล่มสัก
2724,Avarua,CK,86.0,broken clouds,-21.2078,-159.775,Paradise Inn
2727,Ovejas,CO,81.36,overcast clouds,9.5325,-75.2238,Hotel San Francisco
2729,Sinnamary,GF,76.96,scattered clouds,5.3833,-52.95,ALETHEIA Appartement Sinnamary
2732,Rikitea,PF,79.54,clear sky,-23.1203,-134.9692,Pension Maro'i
2746,Padang,ID,75.2,broken clouds,-0.9492,100.3543,Mercure Padang
2747,Touros,BR,78.8,broken clouds,-5.1989,-35.4608,INN NEW HORIZON
2748,Puerto Ayora,EC,82.4,light rain,-0.7393,-90.3518,Finch Bay Galapagos Hotel
2753,Vaini,TO,78.8,heavy intensity rain,-21.2,-175.2,Keleti Beach Resort
2754,Arraial Do Cabo,BR,78.8,clear sky,-22.9661,-42.0278,Pousada Porto Praia
2756,Ternate,ID,78.64,overcast clouds,0.8,127.4,Grand Dafam Bela Ternate
2759,Nha Trang,VN,75.2,broken clouds,12.25,109.1833,Sheraton Nha Trang Hotel & Spa
2761,Dosso,NE,85.21,few clouds,13.049000000000001,3.1937,Hotel Toubal
2768,Santa Maria,BR,75.2,few clouds,-29.6842,-53.8069,Hotel Morotin
2770,Quatre Cocos,MU,77.0,few clouds,-20.2078,57.7625,Emeraude Beach Attitude Hotel
2771,Kannangad,IN,78.39,scattered clouds,12.3081,75.1063,Hotel Landmark
2773,Rurrenabaque,BO,86.0,scattered clouds,-14.4413,-67.5278,Casa de Campo
2774,Kapaa,US,80.01,overcast clouds,22.0752,-159.319,Sheraton Kauai Resort at Coconut Beach
2777,Grand Gaube,MU,77.0,broken clouds,-20.0064,57.6608,Veranda Paul et Virginie Hotel & Spa
2783,Sao Borja,BR,77.81,clear sky,-28.6606,-56.0044,Hotel Executivo
2786,Manzanillo,CU,82.4,scattered clouds,20.3433,-77.1167,"HOSTAL ""THE YELLOW HOUSE"""
2792,Kitgum,UG,75.2,overcast clouds,3.2783,32.8867,Jaflo Gardens Hotel
2798,Nuevitas,CU,87.8,scattered clouds,21.5453,-77.2644,Hotel Caonaba
2805,Hilo,US,84.2,scattered clouds,19.7297,-155.09,Hilo Hawaiian Hotel
2806,Georgetown,MY,79.0,mist,5.4112,100.3354,Cititel Penang
2808,Bengkulu,ID,76.14,overcast clouds,-3.8004,102.2655,Grage Hotel Bengkulu
2810,Trincomalee,LK,81.66,overcast clouds,8.5711,81.2335,Welcombe Hotel
2811,Atuona,PF,80.33,overcast clouds,-9.8,-139.0333,Villa Enata
2814,Saint-Philippe,RE,77.0,light rain,-21.3585,55.7679,"Chambres d'hôte ""La Trinité"""
2818,Bambous Virieux,MU,77.0,few clouds,-20.3428,57.7575,Casa Tia Villa
2821,West Bay,KY,84.2,scattered clouds,19.3667,-81.4167,Calypso Cove
2823,Butaritari,KI,81.46,light rain,3.0707,172.7902,Isles Sunset Lodge
2824,Pimentel,PE,75.2,clear sky,-6.8367,-79.9342,Casona Del Muelle
2828,Honiara,SB,84.67,scattered clouds,-9.4333,159.95,Heritage Park Hotel
2830,Souillac,MU,75.2,few clouds,-20.5167,57.5167,Shanti Maurice Resort & Spa
2833,Hithadhoo,MV,82.49,overcast clouds,-0.6,73.0833,Scoop Guest House
2834,Cockburn Town,TC,78.8,scattered clouds,21.4612,-71.1419,Osprey Beach Hotel
2837,Port Blair,IN,80.6,clear sky,11.6667,92.75,Welcomhotel Bay Island Port Blair
2839,Hambantota,LK,77.68,moderate rain,6.1241,81.1185,Bungalow 63
2841,Pangai,TO,80.6,light rain,-19.8,-174.35,Ha'apai Beach Resort
2845,Buraydah,SA,78.8,clear sky,26.326,43.975,فندق راحة السلام
2848,Ixtapa,MX,77.0,broken clouds,20.7,-105.2,Hotel Plaza Providencia
2850,Hobyo,SO,77.74,clear sky,5.3505,48.5268,Halane Hotel and Restaurent
2858,Rayagada,IN,77.41,clear sky,19.1667,83.4167,"Hotel Swagath, Rayagada"
2870,Moerai,PF,81.82,scattered clouds,-22.4333,-151.3333,Le Manotel
2872,Aba,NG,76.24,overcast clouds,5.1066,7.3667,Rosies Hotel Limited
2879,Tiarei,PF,86.0,broken clouds,-17.5333,-149.3333,Le Rocher de Tahiti
2881,Sao Miguel Do Araguaia,BR,76.96,moderate rain,-13.275,-50.1628,Hotel Executivo Palace
2888,Emerald,AU,79.0,clear sky,-23.5333,148.1667,The Irish Village
2893,Kirakira,SB,84.29,broken clouds,-10.4544,161.9205,SanBiz Lodge
2897,Yaan,NG,78.8,overcast clouds,7.3833,8.5667,
2899,San Patricio,US,84.2,broken clouds,28.017,-97.5169,"Motel 6 Sinton, TX"
2905,Pandan,PH,80.24,overcast clouds,14.0453,124.1694,Bonifacio Lodge
2908,Umm Kaddadah,SD,80.13,few clouds,13.6017,26.6876,
2911,Eydhafushi,MV,82.54,broken clouds,5.1033,73.0708,Soneva Fushi
2913,Banting,MY,77.0,few clouds,2.8167,101.5,Hotel Intan Jugra
2919,Harper,LR,78.22,light rain,4.375,-7.7169,Screensaver
2921,Coxim,BR,78.76,broken clouds,-18.5067,-54.76,Hotel Avenida
2923,Sibolga,ID,75.49,overcast clouds,1.7427,98.7792,Hotel Syariah CN Darussalam
2928,Sumenep,ID,78.53,overcast clouds,-7.0167,113.8667,OYO 3271 Homestay Pandian
2929,San Juan,AR,77.76,clear sky,-31.5375,-68.5364,Hotel Provincial
2932,Buala,SB,85.01,overcast clouds,-8.145,159.5921,Maringe Lagoon Lodge
2941,Faanui,PF,83.61,overcast clouds,-16.4833,-151.75,Bora-Bora Pearl Beach Resort & Spa
2949,Bandarbeyla,SO,75.94,clear sky,9.4942,50.8122,JABIR HOTEL
2950,Tomatlan,MX,84.58,scattered clouds,19.9333,-105.25,Norma franco
2951,San Andres,CO,84.2,few clouds,12.5847,-81.7006,Hotel Arena Blanca
2956,Djougou,BJ,84.27,overcast clouds,9.7085,1.666,Hotel cathas
2957,Labuhan,ID,77.9,overcast clouds,-6.8844,112.2051,PT PPI Lamongan Tambak C
2962,Bowen,AU,80.6,overcast clouds,-20.0167,148.2333,Castle Motor Lodge Motel
2963,Gambela,ET,80.78,clear sky,8.25,34.5833,Solomon Debebe Hotel
2969,Cayenne,GF,81.0,scattered clouds,4.9333,-52.3333,Hôtel Le Dronmi
2970,Itarema,BR,77.74,overcast clouds,-2.9248,-39.9167,"Sea Lounge! Bar, Club & Restaurant"
2974,Sola,VU,78.8,broken clouds,-13.8833,167.55,Leumerus Bungalows
2979,Culebra,PR,80.6,broken clouds,18.303,-65.301,Palmetto Guesthouse
2982,Maningrida,AU,82.11,overcast clouds,-12.0667,134.2667,Dhukurrdji Lodge
2984,Lazaro Cardenas,MX,79.57,clear sky,17.9583,-102.2,Hotel Quinta Antigua
2989,Kahului,US,80.6,scattered clouds,20.8947,-156.47,Maui Seaside Hotel
2997,Rockhampton,AU,78.8,clear sky,-23.3833,150.5,Mercure Rockhampton
3001,Lebanon,US,75.2,scattered clouds,36.2081,-86.2911,Hampton Inn & Suites Lebanon
3012,Katherine,AU,77.0,moderate rain,-14.4667,132.2667,Pine Tree Motel
3014,Martapura,ID,77.0,scattered clouds,-3.4167,114.85,Montana Hotel Syariah
3017,Waingapu,ID,79.2,few clouds,-9.6567,120.2641,Pondok Wisata Elim
3018,San Cristobal,VE,82.4,scattered clouds,7.7669,-72.225,Posada Villaven C.A.
3020,Anloga,GH,81.9,overcast clouds,5.7947,0.8973,Pin Drop Hotel
3021,Tanete,ID,76.82,overcast clouds,-3.9443,119.7848,Wisma Tri Multi
3023,Makakilo City,US,80.6,light rain,21.3469,-158.0858,Marriott's Ko Olina Beach Club
3024,Sabang,ID,82.4,overcast clouds,5.8933,95.3214,Hotel Citra
3039,Keti Bandar,PK,76.95,clear sky,24.1447,67.4497,Haji laloo memon house
3041,Thinadhoo,MV,81.1,overcast clouds,0.5333,72.9333,
3044,Cabedelo,BR,75.2,overcast clouds,-6.9811,-34.8339,Hotel Pigalle
3046,Manado,ID,75.2,few clouds,1.4869999999999999,124.8455,Aryaduta Hotel
3048,Salinopolis,BR,77.11,overcast clouds,-0.6136,-47.3561,Salinas Park Resort Maçarico AP101
3050,Kulhudhuffushi,MV,82.62,overcast clouds,6.6221,73.07,Haajy Guest House 1
3052,La Orilla,MX,79.48,clear sky,17.9833,-102.2333,Baymont by Wyndham Lazaro Cardenas
3053,Champerico,GT,87.8,scattered clouds,14.3,-91.9167,"Hotel y restaurante ""El Diamante"""
3054,Alofi,NU,86.0,overcast clouds,-19.0595,-169.9187,Taloa Heights
3056,Mucurapo,TT,78.8,broken clouds,10.6667,-61.5333,Courtyard by Marriott Port of Spain
3068,Mahebourg,MU,75.2,few clouds,-20.4081,57.7,Shandrani Beachcomber Resort & Spa
3071,Biak,ID,77.25,overcast clouds,-0.9131,122.8766,Penginapan Kim
3072,Nioro,GM,82.54,clear sky,13.35,-15.75,
3082,Barranca De Upia,CO,75.04,overcast clouds,4.5696,-72.9668,HOTEL GUAICARAMO
3092,Bathsheba,BB,78.8,scattered clouds,13.2167,-59.5167,Atlantis Hotel
3095,Maragogi,BR,79.07,broken clouds,-9.0122,-35.2225,Salinas do Maragogi All Inclusive Resort
3099,Dingle,PH,77.49,light rain,10.9995,122.6711,SEGAYA PROPERTY
3104,Nabire,ID,76.44,overcast clouds,-3.3667,135.4833,Hotel Nusantara Nabire
3106,Soc Trang,VN,80.6,few clouds,9.6033,105.98,Phu Qui Hotel
3109,Lorengau,PG,81.45,light rain,-2.0226,147.2712,Lorengau Harbourside Hotel
3111,Sorong,ID,78.62,overcast clouds,-0.8833,131.25,The Waigo Hotel
3116,Mumford,GH,80.82,overcast clouds,5.2618,-0.759,Spanish Villa
3117,The Valley,AI,80.6,few clouds,18.217,-63.0578,CeBlue Villas & Beach Resort
3124,Linaon,PH,81.14,overcast clouds,9.9499,122.4483,Emoha Dive Resort
3126,Acapulco,MX,82.4,few clouds,16.8634,-99.8901,HS Hotsson Smart Acapulco
3130,Pyay,MM,78.94,broken clouds,18.8167,95.2167,Shwe Pyi Thar
3133,Edd,ER,86.05,clear sky,13.9297,41.6925,
3134,Mecca,SA,75.67,clear sky,21.4267,39.8261,"Makkah Clock Royal Tower, A Fairmont Hotel"
3142,Traipu,BR,77.41,scattered clouds,-9.9706,-37.0033,Fazenda Bela Vista
3143,Bontang,ID,77.14,overcast clouds,0.1333,117.5,KOPKAR Hotel Bintang Sintuk
3145,Indiaroba,BR,75.4,scattered clouds,-11.5192,-37.5117,Neide brito
3147,Dickson,US,75.2,clear sky,36.077,-87.3878,East Hills Bed & Breakfast Inn
3149,Cabatuan,PH,77.49,overcast clouds,10.8794,122.486,ROREM'S BOARDING HOUSE
3150,Puerto Escondido,MX,86.0,clear sky,15.85,-97.0667,Aldea del Bazar Hotel and Spa
3151,Akyab,MM,75.63,clear sky,20.15,92.9,Hotel Memory
3153,Poum,NC,80.24,scattered clouds,-20.2333,164.0167,Gîte kajeon
3157,Sokoto,NG,85.35,broken clouds,13.0609,5.239,Shukura Coral Hotel
3166,Totness,SR,76.44,light rain,5.8833,-56.3167,STAATS LOGEERGEBOUW TOTNESS
3170,Kupang,ID,75.2,few clouds,-10.1667,123.5833,Hotel On The Rock by Prasanthi
3172,Condado,CU,86.0,very heavy rain,21.8767,-79.8403,Casa Guachinango
3173,Micheweni,TZ,80.76,scattered clouds,-4.9667,39.8333,
3183,Boa Vista,BR,80.6,broken clouds,2.8197,-60.6733,Aipana Plaza Hotel
3186,Bima,ID,77.27,broken clouds,-8.4667,118.7167,Lambitu Hotel
3187,Kalmunai,LK,77.45,moderate rain,7.4167,81.8167,VS Villa
3190,Talaja,IN,80.31,clear sky,21.35,72.05,Velvettas Resorts
3191,Zabid,YE,77.63,clear sky,14.1951,43.3152,دار الضيافة
3197,Nhulunbuy,AU,80.6,overcast clouds,-12.2333,136.7667,East Arnhem Real Estate
3199,Kita,ML,87.64,scattered clouds,13.0349,-9.4895,Hôtel Chat Rouge
3203,Ligayan,PH,81.14,overcast clouds,4.6533,119.4706,
3205,Carutapera,BR,75.47,light rain,-1.195,-46.02,Lidera
3206,Ambilobe,MG,75.58,overcast clouds,-13.2,49.05,Hôtel & Restaurant DIANA Ambilobe
3213,Oistins,BB,78.8,scattered clouds,13.0667,-59.5333,Butterfly Beach Hotel
3214,Salalah,OM,78.8,few clouds,17.0151,54.0924,HAMDAN PLAZA HOTEL SALALAH
3215,Vila Velha,BR,80.6,clear sky,-20.3297,-40.2925,Quality Suites Vila Velha
3217,Cartagena,CO,86.0,clear sky,10.3997,-75.5144,Hotel Colombia Real - Cartagena
3219,Indramayu,ID,78.42,overcast clouds,-6.3264,108.32,Grand Trisula Hotel
3220,Del Rio,US,87.8,clear sky,29.3627,-100.8968,Holiday Inn Express & Suites del Rio
3226,Bintulu,MY,75.2,few clouds,3.1667,113.0333,900 Boutique INN
3232,Balabac,PH,82.04,overcast clouds,7.9868,117.0645,Sing and Swing Lodge
3245,Itaituba,BR,75.2,light rain,-4.2761,-55.9836,Hotel Campos
3251,Kavaratti,IN,82.02,broken clouds,10.5669,72.642,Hotels in Lakshadweep Islands
3259,Tautira,PF,87.01,broken clouds,-17.7333,-149.15,Pension Oaoa
3261,Sarankhola,BD,75.18,clear sky,22.3082,89.7897,Md Mostafiz Mir Al Imran's House
3262,Inirida,CO,77.2,broken clouds,3.8653,-67.9239,Fuente del Guania Hotel de Lujo
3265,Gaoua,BF,87.4,broken clouds,10.2992,-3.2508,
3266,Lubao,PH,77.0,scattered clouds,14.9167,120.55,Hacienda Gracia
3267,Bastrop,US,75.99,overcast clouds,32.7562,-91.8724,Budget Inn
3275,Tual,ID,83.03,light rain,-5.6667,132.75,Grand Vilia Hotel
3278,Morondava,MG,76.78,clear sky,-20.2833,44.2833,La Case Bambou
3279,Poso,ID,79.0,overcast clouds,-1.3959,120.7524,Hotel 77 Poso
3285,Tutoia,BR,78.46,moderate rain,-2.7619,-42.2744,Pousada Guará's
3288,Durant,US,77.0,clear sky,33.994,-96.3708,Holiday Inn Express & Suites Durant
3292,Trairi,BR,76.95,scattered clouds,-3.2778,-39.2689,janelas do mar
3295,Vao,NC,76.19,overcast clouds,-22.6667,167.4833,Hotel Kou-Bugny
3296,Flinders,AU,75.99,broken clouds,-34.5833,150.8552,Shellharbour Resort & Conference Centre
3298,Baracoa,CU,77.68,few clouds,20.3467,-74.4958,Hostal Rio Miel
3299,Catubig,PH,76.62,overcast clouds,12.4098,125.0548,
3302,Namatanai,PG,82.89,light rain,-3.6667,152.4333,Namatanai Hotel
3303,Wawa,NG,86.5,broken clouds,9.9022,4.4192,
3305,Acarau,BR,77.99,overcast clouds,-2.8856,-40.12,castelo pizzaria
3309,Calamar,CO,86.0,clear sky,10.2511,-74.9146,Hostal Katyalex
3312,Baghmara,IN,76.46,clear sky,23.795,86.2085,Shankar tea shop
3317,Tabou,CI,78.04,light rain,4.423,-7.3528,hotêl doufoulougou
3327,Samarai,PG,83.3,overcast clouds,-10.6167,150.6667,Nuli Sapi
3329,Guaruja,BR,82.99,broken clouds,-23.9931,-46.2564,Charme Hotel Guarujá
3331,Santa,PH,77.41,clear sky,17.486,120.4348,Monte Leah Beach Resort
3334,Sambava,MG,75.61,broken clouds,-14.2667,50.1667,Melrose
3336,Nobres,BR,76.17,few clouds,-14.7203,-56.3275,Hotel Portal Nobres
3339,Gaoual,GN,88.7,overcast clouds,11.75,-13.2,Hotel koliba
3341,Luanda,AO,79.11,overcast clouds,-8.8368,13.2343,LANDU MARINEZA LUFUANDU TONI
3347,Banfora,BF,89.67,overcast clouds,10.6333,-4.7667,Residences David Hebié
3348,Saint-Pierre,RE,77.0,clear sky,-21.3393,55.4781,Lindsey Hôtel
3350,Latung,PH,80.56,overcast clouds,5.5,120.8833,
3353,Na Wa,TH,75.99,overcast clouds,17.4897,104.1006,ร้านช่างเจมส์ สแตนเลส ประตู อื่นๆ คอกซิ่ง นาหว้านครพนม
3354,Iralaya,HN,84.2,few clouds,15.0,-83.2333,Iglesia morava renovada
3355,Parrita,CR,77.0,broken clouds,9.5201,-84.3225,Beso del Viento
3361,Muli,MV,80.92,overcast clouds,2.9167,73.5667,Medhufushi Island Resort
3369,Jaciara,BR,75.09,overcast clouds,-15.9653,-54.9683,Taba Hotel
3374,Srivardhan,IN,82.15,clear sky,18.0333,73.0167,Savli Resort/Hotel - Shrivardhan
3378,Formosa,AR,86.0,few clouds,-26.1775,-58.1781,Hotel Portal del Sol
3381,Sao Jose Da Coroa Grande,BR,79.16,broken clouds,-8.8978,-35.1478,Crôa Mares Hotel
3382,Santa Maria Da Boa Vista,BR,82.65,broken clouds,-8.8078,-39.8256,Fênix Hotel e Restaurante
3384,Ca Mau,VN,79.56,overcast clouds,9.1769,105.15,Khách Sạn Mường Thanh Luxury Cà Mau
3385,Wewak,PG,78.82,overcast clouds,-3.5534,143.6268,In Wewak Boutique Hotel
3388,Puerto Maldonado,PE,76.33,broken clouds,-12.6,-69.1833,Wasai Hotel
3393,Grand Baie,MU,77.0,broken clouds,-20.0182,57.5802,Trou aux Biches Beachcomber Golf Resort & Spa
3394,Kaura Namoda,NG,84.79,overcast clouds,12.5898,6.5779,Moonlight Hotel
3401,Palmerston,AU,78.01,moderate rain,-12.485999999999999,130.9833,Quest Palmerston - Serviced Apartments and Accommodation
3403,Saint-Georges,GD,77.67,few clouds,12.0564,-61.7485,Siesta Hotel
3404,Ambon,ID,77.0,scattered clouds,-3.6954,128.1814,Swiss-Belhotel Ambon
3411,Gweta,BW,76.95,overcast clouds,-20.1833,25.2333,Gweta Lodge
3413,Kimbe,PG,81.37,overcast clouds,-5.5502,150.1429,Kimbe Bay Hotel
3414,Atar,MR,81.18,few clouds,20.5169,-13.0499,Oumou Elghoura
3415,Siguiri,GN,85.71,broken clouds,11.6667,-9.5,
3416,Kuala Terengganu,MY,82.4,scattered clouds,5.3302,103.1408,Hotel Grand Continental Kuala Terengganu (4 Star)
3420,Byron Bay,AU,75.2,clear sky,-28.65,153.6167,Backpackers Inn on the Beach
3425,Avarua,CK,86.0,broken clouds,-21.2078,-159.775,Paradise Inn
3428,Ovejas,CO,81.36,overcast clouds,9.5325,-75.2238,Hotel San Francisco
3430,Sinnamary,GF,76.96,scattered clouds,5.3833,-52.95,ALETHEIA Appartement Sinnamary
3433,Rikitea,PF,79.54,clear sky,-23.1203,-134.9692,Pension Maro'i
3447,Padang,ID,75.2,broken clouds,-0.9492,100.3543,Mercure Padang
3448,Touros,BR,78.8,broken clouds,-5.1989,-35.4608,INN NEW HORIZON
3449,Puerto Ayora,EC,82.4,light rain,-0.7393,-90.3518,Finch Bay Galapagos Hotel
3454,Vaini,TO,75.2,moderate rain,-21.2,-175.2,Keleti Beach Resort
3455,Arraial Do Cabo,BR,78.8,clear sky,-22.9661,-42.0278,Pousada Porto Praia
3457,Ternate,ID,78.64,overcast clouds,0.8,127.4,Grand Dafam Bela Ternate
3460,Nha Trang,VN,75.2,broken clouds,12.25,109.1833,Sheraton Nha Trang Hotel & Spa
3462,Dosso,NE,85.21,few clouds,13.049000000000001,3.1937,Hotel Toubal
3464,Port Macquarie,AU,75.99,clear sky,-31.4333,152.9167,Rydges Port Macquarie
3469,Santa Maria,BR,75.2,few clouds,-29.6842,-53.8069,Hotel Morotin
3471,Quatre Cocos,MU,77.0,few clouds,-20.2078,57.7625,Emeraude Beach Attitude Hotel
3472,Kannangad,IN,78.39,scattered clouds,12.3081,75.1063,Hotel Landmark
3474,Rurrenabaque,BO,86.0,scattered clouds,-14.4413,-67.5278,Casa de Campo
3475,Kapaa,US,79.0,overcast clouds,22.0752,-159.319,Sheraton Kauai Resort at Coconut Beach
3478,Grand Gaube,MU,77.0,broken clouds,-20.0064,57.6608,Veranda Paul et Virginie Hotel & Spa
3484,Sao Borja,BR,77.81,clear sky,-28.6606,-56.0044,Hotel Executivo
3487,Manzanillo,CU,82.4,scattered clouds,20.3433,-77.1167,"HOSTAL ""THE YELLOW HOUSE"""
3493,Kitgum,UG,75.2,overcast clouds,3.2783,32.8867,Jaflo Gardens Hotel
3499,Nuevitas,CU,87.8,scattered clouds,21.5453,-77.2644,Hotel Caonaba
3506,Hilo,US,84.2,scattered clouds,19.7297,-155.09,Hilo Hawaiian Hotel
3507,Georgetown,MY,79.0,mist,5.4112,100.3354,Cititel Penang
3509,Bengkulu,ID,76.14,overcast clouds,-3.8004,102.2655,Grage Hotel Bengkulu
3511,Trincomalee,LK,81.66,overcast clouds,8.5711,81.2335,Welcombe Hotel
3512,Atuona,PF,80.33,overcast clouds,-9.8,-139.0333,Villa Enata
3515,Saint-Philippe,RE,77.0,light rain,-21.3585,55.7679,"Chambres d'hôte ""La Trinité"""
3518,Concepcion Del Uruguay,AR,75.0,few clouds,-32.4825,-58.2372,Aires del Campo Cabañas y Hotel
3519,Bambous Virieux,MU,77.0,few clouds,-20.3428,57.7575,Casa Tia Villa
3522,West Bay,KY,84.2,scattered clouds,19.3667,-81.4167,Calypso Cove
3524,Butaritari,KI,81.46,light rain,3.0707,172.7902,Isles Sunset Lodge
3525,Pimentel,PE,75.2,clear sky,-6.8367,-79.9342,Casona Del Muelle
3529,Honiara,SB,84.67,scattered clouds,-9.4333,159.95,Heritage Park Hotel
3531,Souillac,MU,75.2,few clouds,-20.5167,57.5167,Shanti Maurice Resort & Spa
3534,Hithadhoo,MV,82.49,overcast clouds,-0.6,73.0833,Scoop Guest House
3535,Cockburn Town,TC,78.8,scattered clouds,21.4612,-71.1419,Osprey Beach Hotel
3538,Port Blair,IN,80.6,clear sky,11.6667,92.75,Welcomhotel Bay Island Port Blair
3540,Hambantota,LK,77.68,moderate rain,6.1241,81.1185,Bungalow 63
3542,Pangai,TO,80.6,light rain,-19.8,-174.35,Ha'apai Beach Resort
3546,Buraydah,SA,78.8,clear sky,26.326,43.975,فندق راحة السلام
3549,Ixtapa,MX,75.2,broken clouds,20.7,-105.2,Hotel Plaza Providencia
3551,Hobyo,SO,77.74,clear sky,5.3505,48.5268,Halane Hotel and Restaurent
3559,Rayagada,IN,77.41,clear sky,19.1667,83.4167,"Hotel Swagath, Rayagada"
3571,Moerai,PF,81.82,scattered clouds,-22.4333,-151.3333,Le Manotel
3573,Aba,NG,76.24,overcast clouds,5.1066,7.3667,Rosies Hotel Limited
3580,Tiarei,PF,87.8,broken clouds,-17.5333,-149.3333,Le Rocher de Tahiti
3582,Sao Miguel Do Araguaia,BR,76.96,moderate rain,-13.275,-50.1628,Hotel Executivo Palace
3589,Emerald,AU,81.0,clear sky,-23.5333,148.1667,The Irish Village
3594,Kirakira,SB,84.29,broken clouds,-10.4544,161.9205,SanBiz Lodge
3598,Yaan,NG,78.8,overcast clouds,7.3833,8.5667,
3600,San Patricio,US,84.2,overcast clouds,28.017,-97.5169,"Motel 6 Sinton, TX"
3606,Pandan,PH,80.24,overcast clouds,14.0453,124.1694,Bonifacio Lodge
3609,Umm Kaddadah,SD,80.13,few clouds,13.6017,26.6876,
3612,Eydhafushi,MV,82.54,broken clouds,5.1033,73.0708,Soneva Fushi
3614,Banting,MY,77.0,few clouds,2.8167,101.5,Hotel Intan Jugra
3620,Harper,LR,78.22,light rain,4.375,-7.7169,Screensaver
3622,Coxim,BR,78.76,broken clouds,-18.5067,-54.76,Hotel Avenida
3624,Sibolga,ID,75.49,overcast clouds,1.7427,98.7792,Hotel Syariah CN Darussalam
3629,Sumenep,ID,78.53,overcast clouds,-7.0167,113.8667,OYO 3271 Homestay Pandian
3630,San Juan,AR,77.76,clear sky,-31.5375,-68.5364,Hotel Provincial
3633,Buala,SB,85.01,overcast clouds,-8.145,159.5921,Maringe Lagoon Lodge
3642,Faanui,PF,83.61,overcast clouds,-16.4833,-151.75,Bora-Bora Pearl Beach Resort & Spa
3650,Bandarbeyla,SO,75.94,clear sky,9.4942,50.8122,JABIR HOTEL
3651,Tomatlan,MX,84.58,scattered clouds,19.9333,-105.25,Norma franco
3652,San Andres,CO,84.2,few clouds,12.5847,-81.7006,Hotel Arena Blanca
3657,Djougou,BJ,84.27,overcast clouds,9.7085,1.666,Hotel cathas
3658,Labuhan,ID,77.9,overcast clouds,-6.8844,112.2051,PT PPI Lamongan Tambak C
3663,Bowen,AU,80.6,overcast clouds,-20.0167,148.2333,Castle Motor Lodge Motel
3664,Gambela,ET,80.78,clear sky,8.25,34.5833,Solomon Debebe Hotel
3670,Cayenne,GF,81.0,scattered clouds,4.9333,-52.3333,Hôtel Le Dronmi
3671,Itarema,BR,77.74,overcast clouds,-2.9248,-39.9167,"Sea Lounge! Bar, Club & Restaurant"
3675,Sola,VU,80.92,broken clouds,-13.8833,167.55,Leumerus Bungalows
3680,Culebra,PR,82.4,broken clouds,18.303,-65.301,Palmetto Guesthouse
3683,Maningrida,AU,82.11,overcast clouds,-12.0667,134.2667,Dhukurrdji Lodge
3685,Lazaro Cardenas,MX,79.57,clear sky,17.9583,-102.2,Hotel Quinta Antigua
3690,Kahului,US,82.4,scattered clouds,20.8947,-156.47,Maui Seaside Hotel
3698,Rockhampton,AU,80.6,scattered clouds,-23.3833,150.5,Mercure Rockhampton
3702,Lebanon,US,75.2,broken clouds,36.2081,-86.2911,Hampton Inn & Suites Lebanon
3713,Katherine,AU,77.0,moderate rain,-14.4667,132.2667,Pine Tree Motel
3715,Martapura,ID,77.0,scattered clouds,-3.4167,114.85,Montana Hotel Syariah
3718,Waingapu,ID,79.2,few clouds,-9.6567,120.2641,Pondok Wisata Elim
3719,San Cristobal,VE,82.4,scattered clouds,7.7669,-72.225,Posada Villaven C.A.
3721,Anloga,GH,81.9,overcast clouds,5.7947,0.8973,Pin Drop Hotel
3722,Tanete,ID,76.82,light rain,-3.9443,119.7848,Wisma Tri Multi
3724,Makakilo City,US,80.6,light rain,21.3469,-158.0858,Marriott's Ko Olina Beach Club
3725,Sabang,ID,82.4,overcast clouds,5.8933,95.3214,Hotel Citra
3740,Keti Bandar,PK,76.95,clear sky,24.1447,67.4497,Haji laloo memon house
3742,Thinadhoo,MV,81.1,overcast clouds,0.5333,72.9333,
3745,Cabedelo,BR,75.2,light rain,-6.9811,-34.8339,Hotel Pigalle
3747,Manado,ID,75.2,few clouds,1.4869999999999999,124.8455,Aryaduta Hotel
3749,Salinopolis,BR,77.11,overcast clouds,-0.6136,-47.3561,Salinas Park Resort Maçarico AP101
3751,Kulhudhuffushi,MV,82.62,overcast clouds,6.6221,73.07,Haajy Guest House 1
3753,La Orilla,MX,79.48,clear sky,17.9833,-102.2333,Baymont by Wyndham Lazaro Cardenas
3754,Champerico,GT,87.8,scattered clouds,14.3,-91.9167,"Hotel y restaurante ""El Diamante"""
3755,Vaini,TO,75.2,moderate rain,-21.2,-175.2,Keleti Beach Resort
3756,Vaini,TO,75.2,moderate rain,-21.2,-175.2,Keleti Beach Resort
3763,Waingapu,ID,82.69,broken clouds,-9.6567,120.2641,Pondok Wisata Elim
3768,Cayenne,GF,81.0,overcast clouds,4.9333,-52.3333,Hôtel Le Dronmi
3772,Kapaa,US,80.01,few clouds,22.0752,-159.319,Sheraton Kauai Resort at Coconut Beach
3773,Hilo,US,86.0,few clouds,19.7297,-155.09,Hilo Hawaiian Hotel
3775,Isangel,VU,84.2,broken clouds,-19.55,169.2667,Volcano Sea View Tree House
3779,Avarua,CK,86.0,scattered clouds,-21.2078,-159.775,Paradise Inn
3783,Languyan,PH,77.22,overcast clouds,5.2618,120.0807,
3796,Kieta,PG,84.92,overcast clouds,-6.2167,155.6333,Uruna Bay Retreat
3799,Saint-Philippe,RE,77.0,clear sky,-21.3585,55.7679,"Chambres d'hôte ""La Trinité"""
3811,Batangafo,CF,75.87,overcast clouds,7.3008,18.2833,OCHA Office
3812,Puerto Ayora,EC,79.0,light rain,-0.7393,-90.3518,Finch Bay Galapagos Hotel
3813,Repalle,IN,75.2,mist,16.0167,80.85,kakarlamudi Ravi
3821,Carnarvon,AU,75.2,few clouds,-24.8667,113.6333,Hospitality Carnarvon
3822,Bambous Virieux,MU,77.0,few clouds,-20.3428,57.7575,Casa Tia Villa
3823,Georgetown,MY,79.0,mist,5.4112,100.3354,Cititel Penang
3825,Cifuentes,CU,80.6,moderate rain,22.645,-80.0461,
3832,Saint-Georges,GD,78.8,few clouds,12.0564,-61.7485,Siesta Hotel
3835,Malindi,KE,79.16,broken clouds,-3.2175,40.1191,African House Resort
3836,Butaritari,KI,81.91,scattered clouds,3.0707,172.7902,Isles Sunset Lodge
3838,Arraial Do Cabo,BR,77.0,clear sky,-22.9661,-42.0278,Pousada Porto Praia
3841,Grand Gaube,MU,77.0,few clouds,-20.0064,57.6608,Veranda Paul et Virginie Hotel & Spa
3843,Kahului,US,82.4,scattered clouds,20.8947,-156.47,Maui Seaside Hotel
3844,Karratha,AU,86.22,clear sky,-20.7377,116.8463,ibis Styles Karratha
3854,Vila Velha,BR,78.8,broken clouds,-20.3297,-40.2925,Quality Suites Vila Velha
3870,Gizo,SB,84.88,overcast clouds,-8.103,156.8419,Imagination Island
3873,Tonekabon,IR,75.2,broken clouds,36.8163,50.8738,Hotel Sadra
3874,Tanout,NE,75.97,broken clouds,14.9709,8.8879,
3876,Rikitea,PF,79.45,clear sky,-23.1203,-134.9692,Pension Maro'i
3877,Hithadhoo,MV,83.01,broken clouds,-0.6,73.0833,Scoop Guest House
3879,Banamba,ML,83.17,scattered clouds,13.55,-7.45,Kassela de Banamba
3880,Anito,PH,79.74,broken clouds,12.4497,125.2886,The Yellow House
3887,Cockburn Town,TC,77.0,scattered clouds,21.4612,-71.1419,Osprey Beach Hotel
3892,Padang,ID,75.2,scattered clouds,-0.9492,100.3543,Mercure Padang
3900,Atuona,PF,80.62,scattered clouds,-9.8,-139.0333,Villa Enata
3902,Pathein,MM,80.2,overcast clouds,16.7833,94.7333,New Pammawaddy Hotel
3904,Ati,TD,81.88,few clouds,13.2154,18.3353,
3910,Sao Joao Da Barra,BR,76.41,clear sky,-21.6403,-41.0511,Pousada Porto De Canoas
3914,Martapura,ID,78.8,broken clouds,-3.4167,114.85,Montana Hotel Syariah
3916,Salalah,OM,77.0,few clouds,17.0151,54.0924,HAMDAN PLAZA HOTEL SALALAH
3919,Bengkulu,ID,76.64,overcast clouds,-3.8004,102.2655,Grage Hotel Bengkulu
3927,Ciudad Bolivar,VE,85.93,overcast clouds,8.1222,-63.5497,Hotel Edi
3928,Bandarbeyla,SO,75.2,clear sky,9.4942,50.8122,JABIR HOTEL
3930,Caravelas,BR,75.22,clear sky,-17.7125,-39.2481,Pousada dos Navegantes
3931,Ndioum,SN,84.2,clear sky,16.5129,-14.6471,l'hôtel samassa
3937,Yeppoon,AU,84.2,broken clouds,-23.1333,150.7333,Villa Mar Colina
3939,Bani,DO,80.01,few clouds,18.2833,-70.3333,Hospedaje Henriquez
3943,Buritama,BR,80.53,overcast clouds,-21.0661,-50.1472,Rancho Do Presidente - Buritama - SP
3952,Byron Bay,AU,80.6,clear sky,-28.65,153.6167,Backpackers Inn on the Beach
3953,Olinda,BR,78.8,scattered clouds,-8.0089,-34.8553,Hotel Albergue de Olinda
3954,Flinders,AU,79.0,scattered clouds,-34.5833,150.8552,Shellharbour Resort & Conference Centre
3961,Ugoofaaru,MV,82.08,overcast clouds,5.6667,73.0,Ungoofaaru Inn
3963,Popondetta,PG,88.41,overcast clouds,-8.7537,148.2534,Timos Transit House
3964,Pyapon,MM,79.84,overcast clouds,16.2833,95.6833,Aung Naing Thu Motel
3968,Tiarei,PF,89.6,broken clouds,-17.5333,-149.3333,Le Rocher de Tahiti
3970,Benjamin Constant,BR,75.2,broken clouds,-4.3831,-70.0311,CASA AVALIADA
3971,Pemangkat,ID,77.34,overcast clouds,1.1667,108.9667,Kost H.Syamsuddin
3974,Ladario,BR,77.25,clear sky,-19.0047,-57.6017,Hotel Fazenda 4 cantos
3981,Mandapam,IN,83.1,overcast clouds,9.2833,79.1167,Tanvi Chachaa Chalet
3984,Princeton,US,77.0,clear sky,25.5384,-80.4089,American Best Inn
3993,Kavieng,PG,83.7,light rain,-2.5744,150.7967,Nusa Island Retreat
3994,Kpandae,GH,80.55,few clouds,8.4689,-0.0113,S. Amaski Guest House
3996,Bacalar,MX,82.4,scattered clouds,18.6667,-88.3833,Hotel Laguna Bacalar
3997,Guasdualito,VE,76.12,overcast clouds,7.2424,-70.7324,Hotel Cuibas
4003,Kinkala,CG,75.2,few clouds,-4.3614,14.7644,Hotel la Pepeche Kinkala
4004,San Patricio,US,78.8,clear sky,28.017,-97.5169,"Motel 6 Sinton, TX"
4006,Alugan,PH,80.51,scattered clouds,12.2188,125.4808,JM Lodge
4007,Yulara,AU,77.0,clear sky,-25.2406,130.9889,Desert Gardens Hotel - Ayers Rock Resort
4014,Harper,LR,78.04,overcast clouds,4.375,-7.7169,Screensaver
4015,Jati,PK,75.04,clear sky,24.3539,68.2671,Cafe Lala Rehan Restaurant
4020,Abeche,TD,82.49,overcast clouds,13.8292,20.8324,Assaleh Hamdan Haroune
4022,Cap Malheureux,MU,77.0,few clouds,-19.9842,57.6142,Pereybere Hotel & Spa
4023,Kattivakkam,IN,77.0,mist,13.2167,80.3167,Raj's villa
4024,Mlonggo,ID,80.6,haze,-6.5333,110.7,Asia Metal Art
4028,Mohgaon,IN,76.19,clear sky,21.65,78.7167,pushpa computer & photocopy
4029,Puerto Colombia,CO,80.6,few clouds,10.9878,-74.9547,El Hamakero De Conchi-Hostal
4032,Pangai,TO,77.0,light rain,-19.8,-174.35,Ha'apai Beach Resort
4035,Marsh Harbour,BS,75.99,clear sky,26.5412,-77.0636,Abaco Beach Resort
4037,Saint-Pierre,RE,77.0,clear sky,-21.3393,55.4781,Lindsey Hôtel
4040,Dingle,PH,82.96,overcast clouds,10.9995,122.6711,SEGAYA PROPERTY
4041,Portobelo,PA,81.0,few clouds,9.55,-79.65,Scuba Portobelo
4044,Bairiki,KI,84.2,few clouds,1.3292,172.9752,Tarawa Boutique Hotel
4046,Takoradi,GH,77.72,overcast clouds,4.8845,-1.7554,Raybow International Hotel
4050,Odienne,CI,79.09,overcast clouds,9.51,-7.5692,Oustaz Vame DIAKITE
4053,Bissau,GW,75.2,clear sky,11.8636,-15.5977,Pensão Creola
4056,Ewa Beach,US,80.6,light rain,21.3156,-158.0072,Uncle Junior Robert
4063,Nha Trang,VN,75.2,broken clouds,12.25,109.1833,Sheraton Nha Trang Hotel & Spa
4066,Mana,GF,76.39,scattered clouds,5.6592,-53.7767,LE SAMANA
4067,Kandrian,PG,84.22,overcast clouds,-6.2167,149.55,Kandrian Station
4073,Biak,ID,81.01,overcast clouds,-0.9131,122.8766,Penginapan Kim
4076,Mersing,MY,75.2,scattered clouds,2.4312,103.8405,Timotel Hotel
4083,Meulaboh,ID,77.02,broken clouds,4.1363,96.1285,Kost Pria
4084,Aquiraz,BR,80.6,few clouds,-3.9014,-38.3911,Pousada Rua Camurupim
4085,Iralaya,HN,80.6,few clouds,15.0,-83.2333,Iglesia morava renovada
4087,Kaduqli,SD,83.23,clear sky,11.0167,29.7167,فندق الله جابو
4094,Biltine,TD,82.31,overcast clouds,14.5333,20.9167,Hôtel Trois Étoiles de Biltine
4099,Sibolga,ID,77.54,overcast clouds,1.7427,98.7792,Hotel Syariah CN Darussalam
4101,Honiara,SB,85.08,overcast clouds,-9.4333,159.95,Heritage Park Hotel
4103,San Cristobal,VE,78.8,scattered clouds,7.7669,-72.225,Posada Villaven C.A.
4110,Jeremie,HT,77.07,clear sky,18.65,-74.1167,Auberge’Inn
4112,Mount Isa,AU,86.0,clear sky,-20.7333,139.5,ibis Styles Mt Isa Verona
4117,Kerema,PG,84.56,overcast clouds,-7.9631,145.7785,Frena Lodge
4118,Ixtapa,MX,75.2,broken clouds,20.7,-105.2,Hotel Plaza Providencia
4121,Katherine,AU,80.6,overcast clouds,-14.4667,132.2667,Pine Tree Motel
4122,Bosaso,SO,75.22,broken clouds,11.2842,49.1816,Red Sea Hotel
4123,Kalmunai,LK,77.88,overcast clouds,7.4167,81.8167,VS Villa
4124,Sechura,PE,76.35,overcast clouds,-5.5569,-80.8222,Hospedaje Costa Bella
4129,Martin,US,78.01,few clouds,27.0837,-80.4164,
4135,Cibinong,ID,87.01,haze,-6.4817,106.8542,Cirimekar Residence
4141,Buchanan,LR,78.17,overcast clouds,5.8808,-10.0467,Kamaneahn Hotel Inc
4142,Vanimo,PG,85.3,overcast clouds,-2.6741,141.3028,Vahmoneh Lodge Vanimo
4143,Samarai,PG,85.39,overcast clouds,-10.6167,150.6667,Nuli Sapi
4150,Lazaro Cardenas,MX,75.76,clear sky,17.9583,-102.2,Hotel Quinta Antigua
4151,Port Blair,IN,82.33,scattered clouds,11.6667,92.75,Welcomhotel Bay Island Port Blair
4157,Del Rio,US,87.8,clear sky,29.3627,-100.8968,Holiday Inn Express & Suites del Rio
4161,Hambantota,LK,75.2,scattered clouds,6.1241,81.1185,Bungalow 63
4164,Narrabri,AU,75.0,clear sky,-30.3167,149.7833,Crossroads Hotel
4172,Bajil,YE,77.23,clear sky,15.0584,43.2851,شبكة ماكس نت MAX WIFI
4175,Kupang,ID,82.4,few clouds,-10.1667,123.5833,Hotel On The Rock by Prasanthi
4177,Faanui,PF,83.68,overcast clouds,-16.4833,-151.75,Bora-Bora Pearl Beach Resort & Spa
4178,San Andres,CO,80.6,few clouds,12.5847,-81.7006,Hotel Arena Blanca
4179,Touros,BR,78.8,broken clouds,-5.1989,-35.4608,INN NEW HORIZON
4180,Bathsheba,BB,78.8,few clouds,13.2167,-59.5167,Atlantis Hotel
4182,Yacuiba,BO,75.92,overcast clouds,-22.038,-63.6797,Hotel Monumental
4185,Lorengau,PG,83.44,broken clouds,-2.0226,147.2712,Lorengau Harbourside Hotel
4187,Soyo,AO,78.1,overcast clouds,-6.1349,12.3689,Hotel Mpampa
4198,Tagbac,PH,80.6,scattered clouds,7.0889999999999995,125.1567,Sitio Maupot Family Resort
4205,Cuajinicuilapa,MX,76.73,clear sky,16.4667,-98.4167,Pozo S. XVI
4208,Bodden Town,KY,80.6,few clouds,19.2833,-81.25,Will T Place
4211,Dan Khun Thot,TH,80.01,clear sky,15.2085,101.7714,Sai Thong Hotel
4216,Shagamu,NG,78.53,overcast clouds,6.8432,3.6478,Remo Majestic Hotel
4220,Boa Vista,BR,75.2,moderate rain,2.8197,-60.6733,Aipana Plaza Hotel
4223,Gaoual,GN,83.21,broken clouds,11.75,-13.2,Hotel koliba
4229,Sydney,AU,78.01,clear sky,-33.8679,151.2073,The Grace Sydney
4231,Marica,BR,81.0,scattered clouds,-22.9194,-42.8186,Marica Hills
4232,Sinnamary,GF,76.73,overcast clouds,5.3833,-52.95,ALETHEIA Appartement Sinnamary
4234,Madang,PG,85.21,overcast clouds,-5.2246,145.7966,Comfort Inn Hotel
4236,Axim,GH,76.35,overcast clouds,4.8699,-2.2405,AXIM BEACH RESORT AND SPA
4237,Atar,MR,78.75,clear sky,20.5169,-13.0499,Oumou Elghoura
4245,Eravur,LK,78.67,overcast clouds,7.7733,81.6095,Farhan KING House
4247,Alofi,NU,86.0,light rain,-19.0595,-169.9187,Taloa Heights
4249,Quatre Cocos,MU,77.0,few clouds,-20.2078,57.7625,Emeraude Beach Attitude Hotel
4250,Jertih,MY,77.0,few clouds,5.7336,102.4897,One Utama Hotel
4263,Bonthe,SL,77.83,broken clouds,7.5264,-12.505,Bonthe Holiday Village
4267,Gamba,GA,75.13,overcast clouds,-2.65,10.0,
4273,Kano,NG,82.09,overcast clouds,12.0001,8.5167,Havana Guest Inn
4279,Port Moresby,PG,87.8,scattered clouds,-9.4431,147.1797,Lamana Hotel
4282,Sur,OM,75.31,clear sky,22.5667,59.5289,Sur Plaza Hotel
4284,Pocone,BR,77.13,clear sky,-16.2567,-56.6228,Hotel e Churrascaria Pantaneira
4287,San Policarpo,PH,80.78,scattered clouds,12.1791,125.5072,JM Lodge
4288,Riyadh,SA,84.2,clear sky,24.6877,46.7219,InterContinental Riyadh
4289,Batticaloa,LK,79.2,overcast clouds,7.7102,81.6924,Grand Star Guest House
4290,Denpasar,ID,82.4,few clouds,-8.65,115.2167,ASTON Denpasar Hotel & Convention Center
4293,Tabuk,PH,78.49,clear sky,17.4189,121.4443,Golden Berries Hotel and Convention
4294,Pozo Colorado,PY,79.0,clear sky,-23.4923,-58.7972,Hospedaje la Amistad
4295,Pajapita,GT,84.2,clear sky,14.7167,-92.0333,Hotel Pajapita Center
4298,Labuhan,ID,81.1,overcast clouds,-6.8844,112.2051,PT PPI Lamongan Tambak C
4299,Bauchi,NG,76.41,broken clouds,10.5,10.0,
4307,Namatanai,PG,84.6,light rain,-3.6667,152.4333,Namatanai Hotel
4309,Mareeba,AU,88.0,overcast clouds,-17.0,145.4333,Trinity Plains Tourist Park
4318,Coahuayana,MX,77.0,clear sky,18.7333,-103.6833,El rranchito michuacan de ocampos
4319,Sola,VU,87.8,overcast clouds,-13.8833,167.55,Leumerus Bungalows
4322,Ahuimanu,US,80.6,light rain,21.4447,-157.8378,Paradise Bay Resort
4332,Santa Cruz,BO,77.0,scattered clouds,-17.8,-63.1667,Aviador Hotel Boutique
4335,Hobyo,SO,77.38,few clouds,5.3505,48.5268,Halane Hotel and Restaurent
4339,Charlestown,AU,77.0,clear sky,-32.95,151.6667,Panorama Motor Inn Hotel
4341,Mackay,AU,84.2,overcast clouds,-21.15,149.2,International Lodge Motel
4344,Saint-Joseph,RE,77.0,clear sky,-21.3667,55.6167,"""Plantation Bed and Breakfast"
4355,Kendari,ID,82.8,broken clouds,-3.945,122.4989,Hotel Wixel
4356,Koumac,NC,84.72,broken clouds,-20.5667,164.2833,Le Monitel
4359,Kirakira,SB,85.03,overcast clouds,-10.4544,161.9205,SanBiz Lodge
4367,Picota,PE,77.0,few clouds,-6.9197,-76.3304,Hospedaje Vanessa
4372,Ilhabela,BR,77.45,scattered clouds,-23.7781,-45.3581,Ilha Flat Hotel
4373,Trairi,BR,76.3,overcast clouds,-3.2778,-39.2689,janelas do mar
4382,Avanigadda,IN,75.2,mist,16.0215,80.9181,AP Camping
4386,Vao,NC,76.41,few clouds,-22.6667,167.4833,Hotel Kou-Bugny
4391,Touba,CI,78.53,overcast clouds,8.2833,-7.6833,Hotel de L'Amitié Vraie
4394,Ranong,TH,75.2,clear sky,9.9658,98.6348,Tinidee Hotel@Ranong
4409,Imbituba,BR,75.2,broken clouds,-28.24,-48.6703,Praia Hotel Imbituba
4411,Matara,LK,75.96,overcast clouds,5.9485,80.5353,Amaloh Boutique Resort
4415,San Lucas,MX,87.8,clear sky,16.6,-92.7167,"Posada "" El rapidin"""
4418,Mogadishu,SO,77.76,clear sky,2.0371,45.3438,Olympic Hotel
4431,Pasighat,IN,77.38,scattered clouds,28.0667,95.3333,Siang Guest House
4438,Aden,YE,78.98,clear sky,12.7794,45.0367,Sama Emirate Hotel
4442,Cabedelo,BR,75.2,overcast clouds,-6.9811,-34.8339,Hotel Pigalle
4445,Cotonou,BJ,80.82,overcast clouds,6.3654,2.4183,Novotel Cotonou Orisha
4447,Samana,DO,77.0,few clouds,19.2056,-69.3369,The Bannister - Hotel & Yacht Club
4448,Port Macquarie,AU,81.0,clear sky,-31.4333,152.9167,Rydges Port Macquarie
4452,Tabas,IR,77.02,overcast clouds,33.5959,56.9244,شرکت معماری مهراز شایگان آراد
4453,Lodwar,KE,81.81,broken clouds,3.1191,35.5973,Turkwel Lodge
4454,Marawi,PH,80.01,overcast clouds,7.9986,124.2928,Derogongan Residence
4460,Tagusao,PH,83.61,overcast clouds,9.1924,117.8141,Toledo
4466,Ipixuna,BR,77.0,broken clouds,-1.7625,-48.8043,Casa da Oscarina
4474,Bathsheba,BB,78.8,few clouds,13.2167,-59.5167,Atlantis Hotel
4481,Villanueva,HN,86.0,few clouds,15.3167,-88.0,IGLESIA EVANGELICA DEL PRINCIPE DE PAZ
4483,Rikitea,PF,79.45,clear sky,-23.1203,-134.9692,Pension Maro'i
4485,Sarankhola,BD,79.72,clear sky,22.3082,89.7897,Md Mostafiz Mir Al Imran's House
4495,Vaini,TO,75.2,moderate rain,-21.2,-175.2,Keleti Beach Resort
4496,Kavaratti,IN,82.56,broken clouds,10.5669,72.642,Hotels in Lakshadweep Islands
4499,Saint-Philippe,RE,77.0,clear sky,-21.3585,55.7679,"Chambres d'hôte ""La Trinité"""
4500,Hithadhoo,MV,83.01,broken clouds,-0.6,73.0833,Scoop Guest House
4501,Hilo,US,86.0,few clouds,19.7297,-155.09,Hilo Hawaiian Hotel
4502,Georgetown,MY,79.0,mist,5.4112,100.3354,Cititel Penang
4503,Tabou,CI,78.03,overcast clouds,4.423,-7.3528,hotêl doufoulougou
4505,Atuona,PF,80.62,scattered clouds,-9.8,-139.0333,Villa Enata
4510,Avarua,CK,86.0,scattered clouds,-21.2078,-159.775,Paradise Inn
4514,Bambous Virieux,MU,77.0,few clouds,-20.3428,57.7575,Casa Tia Villa
4516,Gorontalo,ID,79.7,overcast clouds,0.5412,123.0595,Maqna Hotel by Prasanthi
4520,Quelimane,MZ,75.2,light rain,-17.8786,36.8883,Hotel Flamingo
4525,Puerto Ayora,EC,78.01,light rain,-0.7393,-90.3518,Finch Bay Galapagos Hotel
4527,Kapaa,US,80.01,few clouds,22.0752,-159.319,Sheraton Kauai Resort at Coconut Beach
4531,Bubaque,GW,77.43,scattered clouds,11.2833,-15.8333,"Casa Dora, Bubaque"
4534,Gizo,SB,84.88,overcast clouds,-8.103,156.8419,Imagination Island
4538,Thinadhoo,MV,82.24,overcast clouds,0.5333,72.9333,
4541,Batasan,PH,83.3,overcast clouds,12.7667,120.7833,CORDERO Beach Resort
4542,Tagusao,PH,83.61,overcast clouds,9.1924,117.8141,Toledo
4551,Kieta,PG,84.92,overcast clouds,-6.2167,155.6333,Uruna Bay Retreat
4561,Faanui,PF,83.68,overcast clouds,-16.4833,-151.75,Bora-Bora Pearl Beach Resort & Spa
4566,Flinders,AU,79.0,scattered clouds,-34.5833,150.8552,Shellharbour Resort & Conference Centre
4569,Wajir,KE,78.71,clear sky,1.7471,40.0573,Al-bustan Hotel And Restaurant.
4573,Butaritari,KI,81.91,scattered clouds,3.0707,172.7902,Isles Sunset Lodge
4575,Marabba,SD,88.36,clear sky,12.35,32.1833,
4578,Bengkulu,ID,76.64,overcast clouds,-3.8004,102.2655,Grage Hotel Bengkulu
4581,Kahului,US,82.4,scattered clouds,20.8947,-156.47,Maui Seaside Hotel
4583,Bonthe,SL,77.83,broken clouds,7.5264,-12.505,Bonthe Holiday Village
4586,Arraial Do Cabo,BR,77.0,clear sky,-22.9661,-42.0278,Pousada Porto Praia
4587,Port Hedland,AU,84.2,clear sky,-20.3167,118.5667,The Esplanade Hotel
4591,Birao,CF,82.09,overcast clouds,10.2849,22.7882,
4595,Karratha,AU,86.22,clear sky,-20.7377,116.8463,ibis Styles Karratha
4599,Buala,SB,86.76,broken clouds,-8.145,159.5921,Maringe Lagoon Lodge
4603,Tautira,PF,89.6,light rain,-17.7333,-149.15,Pension Oaoa
4604,Bandarbeyla,SO,75.2,clear sky,9.4942,50.8122,JABIR HOTEL
4611,Isangel,VU,84.2,broken clouds,-19.55,169.2667,Volcano Sea View Tree House
4618,Cockburn Town,TC,77.0,scattered clouds,21.4612,-71.1419,Osprey Beach Hotel
4619,Qeshm,IR,75.2,few clouds,26.9581,56.2719,Qeshm Kavan Hotel
4623,Bontang,ID,79.74,overcast clouds,0.1333,117.5,KOPKAR Hotel Bintang Sintuk
4626,Vila Velha,BR,78.8,broken clouds,-20.3297,-40.2925,Quality Suites Vila Velha
4628,Navotas,PH,84.99,few clouds,14.4167,121.2268,Venancio Venadas Property
4629,Kloulklubed,PW,84.2,broken clouds,7.0419,134.2556,Storyboard Beach Resort
4633,Harper,LR,78.04,overcast clouds,4.375,-7.7169,Screensaver
4635,Dingle,PH,82.96,overcast clouds,10.9995,122.6711,SEGAYA PROPERTY
4636,Matanzas,CU,78.8,few clouds,23.0411,-81.5775,hostal sueños
4644,Luanda,AO,78.8,light rain,-8.8368,13.2343,LANDU MARINEZA LUFUANDU TONI
4646,La Asuncion,VE,76.59,scattered clouds,11.0333,-63.8628,Colinas de Matasiete
4647,Kirakira,SB,85.03,overcast clouds,-10.4544,161.9205,SanBiz Lodge
4655,Niteroi,BR,81.0,scattered clouds,-22.8833,-43.1036,Guesthouse
4656,Cap Malheureux,MU,77.0,few clouds,-19.9842,57.6142,Pereybere Hotel & Spa
4657,Kralendijk,BQ,78.8,overcast clouds,12.15,-68.2667,Divi Flamingo Beach Resort & Casino
4661,Padang,ID,75.2,scattered clouds,-0.9492,100.3543,Mercure Padang
4664,Maragogi,BR,78.01,clear sky,-9.0122,-35.2225,Salinas do Maragogi All Inclusive Resort
4665,Dangriga,BZ,82.4,clear sky,16.9692,-88.2321,Chaleanor Hotel
4671,Tabas,IR,77.02,overcast clouds,33.5959,56.9244,شرکت معماری مهراز شایگان آراد
4672,Kiunga,PG,80.4,overcast clouds,-6.1219,141.2906,Airport Lodge Kiunga
4675,High Rock,BS,75.2,few clouds,26.6208,-78.2833,Hideaway Bahamas Beach Club
4678,Takoradi,GH,77.72,overcast clouds,4.8845,-1.7554,Raybow International Hotel
4679,Poum,NC,80.35,scattered clouds,-20.2333,164.0167,Gîte kajeon
4680,Sao Joao Da Barra,BR,76.41,clear sky,-21.6403,-41.0511,Pousada Porto De Canoas
4681,Buchanan,LR,78.17,overcast clouds,5.8808,-10.0467,Kamaneahn Hotel Inc
4686,Samarai,PG,85.39,overcast clouds,-10.6167,150.6667,Nuli Sapi
4692,Caravelas,BR,75.22,clear sky,-17.7125,-39.2481,Pousada dos Navegantes
4693,San Cristobal,VE,78.8,scattered clouds,7.7669,-72.225,Posada Villaven C.A.
4698,Alofi,NU,86.0,light rain,-19.0595,-169.9187,Taloa Heights
4700,Osvaldo Cruz,BR,77.49,scattered clouds,-21.7967,-50.8786,Grande Hotel Esplanada Ceglauskis
4702,Madang,PG,85.21,overcast clouds,-5.2246,145.7966,Comfort Inn Hotel
4705,Natal,BR,78.8,light rain,-5.795,-35.2094,Villa Park Hotel | Natal
4707,Gamba,GA,75.13,overcast clouds,-2.65,10.0,
4711,Lazaro Cardenas,MX,75.76,clear sky,17.9583,-102.2,Hotel Quinta Antigua
4712,Qui Nhon,VN,75.36,overcast clouds,13.7667,109.2333,Hoang Yen Canary Hotel
4714,Goure,NE,81.0,overcast clouds,13.9835,10.2704,
4715,Wagar,SD,87.06,clear sky,16.1525,36.2032,
4717,Kavieng,PG,83.7,light rain,-2.5744,150.7967,Nusa Island Retreat
4718,Kaeo,NZ,75.0,few clouds,-35.1,173.7833,Bushido Lodge
4719,Yulara,AU,77.0,clear sky,-25.2406,130.9889,Desert Gardens Hotel - Ayers Rock Resort
4721,Moratuwa,LK,77.0,scattered clouds,6.773,79.8816,Sa Mansion By Yoho
4722,Khartoum,SD,82.99,clear sky,15.5518,32.5324,Hotel China
4732,Namatanai,PG,84.6,light rain,-3.6667,152.4333,Namatanai Hotel
4734,Taree,AU,77.0,clear sky,-31.9,152.4667,All Seasons Country Lodge Taree
4740,Boa Vista,BR,75.2,moderate rain,2.8197,-60.6733,Aipana Plaza Hotel
4746,Carnarvon,AU,75.2,few clouds,-24.8667,113.6333,Hospitality Carnarvon
4750,Soure,BR,75.18,overcast clouds,-0.7167,-48.5233,Casarão
4752,Biak,ID,81.01,overcast clouds,-0.9131,122.8766,Penginapan Kim
4757,Guane,CU,76.28,overcast clouds,22.2025,-84.0875,base de Campismo LosPortales de Guane
4759,Quatre Cocos,MU,77.0,few clouds,-20.2078,57.7625,Emeraude Beach Attitude Hotel
4769,Miri,MY,80.6,few clouds,4.4148,114.0089,"Mega Hotel, Miri"
4771,Yaan,NG,76.57,overcast clouds,7.3833,8.5667,
4775,Saint-Leu,RE,77.0,clear sky,-21.15,55.2833,La Caz Oceane
4776,Gogrial,SS,81.52,scattered clouds,8.5332,28.1004,
4777,Floriano,BR,78.19,overcast clouds,-6.7669,-43.0225,Hotel Maktub
4778,Kailua,US,80.6,light rain,21.4022,-157.7394,Sheffield House Bed & Breakfast
4779,Panaba,MX,79.86,clear sky,21.2833,-88.2667,Posada rosario
4793,Fare,PF,83.53,overcast clouds,-16.7,-151.0167,Maitai Lapita Village Huahine
4794,Honiara,SB,85.08,overcast clouds,-9.4333,159.95,Heritage Park Hotel
4796,Banda Aceh,ID,80.24,scattered clouds,5.5577,95.3222,Sulthan Hotel International
4798,Caraballeda,VE,82.4,broken clouds,10.6112,-66.8522,Hotel 15 Letras
4800,Manavalakurichi,IN,84.2,mist,8.1333,77.3,Udaya Boys Hostel
4803,Pangkalanbuun,ID,82.2,overcast clouds,-2.6833,111.6167,Grand Kecubung Hotel
4808,Wattegama,LK,75.2,scattered clouds,6.7989,81.4808,
4809,Saint-Pierre,RE,77.0,clear sky,-21.3393,55.4781,Lindsey Hôtel
4810,Batemans Bay,AU,77.0,light rain,-35.7167,150.1833,Batemans Bay Marina Resort
4813,Nuevo Progreso,MX,77.0,overcast clouds,23.1667,-97.95,Balneario Rio el Paraiso
4815,San Patricio,US,75.2,broken clouds,28.017,-97.5169,"Motel 6 Sinton, TX"
4820,Port Moresby,PG,87.8,scattered clouds,-9.4431,147.1797,Lamana Hotel
4821,Lagunillas,VE,81.34,scattered clouds,10.1301,-71.2595,Casa de Beatriz y Chucho
4822,Ambon,ID,82.4,scattered clouds,-3.6954,128.1814,Swiss-Belhotel Ambon
4823,Daru,PG,82.31,overcast clouds,-9.0763,143.2092,Daru Lodge
4824,Cayenne,GF,81.0,few clouds,4.9333,-52.3333,Hôtel Le Dronmi
4825,Port Macquarie,AU,81.0,clear sky,-31.4333,152.9167,Rydges Port Macquarie
4826,Bankra,IN,78.8,mist,22.6275,88.2981,Siulis
4831,Prado,BR,76.23,clear sky,-17.3411,-39.2208,INN CORNER RIVER - PRADO - BAHIA - HOUSING AND HOTEL
4833,Davila,PH,80.6,few clouds,18.4726,120.5763,Blue Ridge Beach Resort
4835,Maceio,BR,75.2,broken clouds,-9.6658,-35.7353,Poutur Pousada
4839,Labuhan,ID,81.1,overcast clouds,-6.8844,112.2051,PT PPI Lamongan Tambak C
4843,Bimbo,CF,78.8,few clouds,4.2567,18.4158,
4846,Matara,LK,75.96,overcast clouds,5.9485,80.5353,Amaloh Boutique Resort
4849,Atar,MR,78.75,clear sky,20.5169,-13.0499,Oumou Elghoura
4859,Tual,ID,82.76,overcast clouds,-5.6667,132.75,Grand Vilia Hotel
4862,Port Blair,IN,82.33,scattered clouds,11.6667,92.75,Welcomhotel Bay Island Port Blair
4866,Mae Ramat,TH,77.0,broken clouds,16.984,98.5166,บ้านโฮ่งโฮมสเตย์ แม่ระมาด ตาก
4869,Le Port,RE,75.2,few clouds,-20.9373,55.2919,Villa Maido
4877,Manubul,PH,80.42,overcast clouds,5.4732,120.7986,
4879,Coahuayana,MX,77.0,clear sky,18.7333,-103.6833,El rranchito michuacan de ocampos
4884,Honolulu,US,80.6,light rain,21.3069,-157.8583,Aston at the Executive Centre Hotel
4886,Mubi,NG,77.58,overcast clouds,10.2676,13.2644,Hotel
4894,Porbandar,IN,76.8,clear sky,21.6422,69.6093,Lords Inn Porbandar
4896,Acarau,BR,78.1,overcast clouds,-2.8856,-40.12,castelo pizzaria
4897,Pondicherry,IN,77.18,few clouds,11.93,79.83,Villa Shanti for food lovers
4898,Grand Gaube,MU,77.0,few clouds,-20.0064,57.6608,Veranda Paul et Virginie Hotel & Spa
4904,Camacari,BR,80.6,few clouds,-12.6975,-38.3242,Hotel Cambuci
4906,Puerto Boyaca,CO,75.24,overcast clouds,5.9758,-74.5885,hotel juanes
4917,Soyo,AO,78.1,overcast clouds,-6.1349,12.3689,Hotel Mpampa
4918,Bintulu,MY,77.0,few clouds,3.1667,113.0333,900 Boutique INN
4919,Ati,TD,81.88,few clouds,13.2154,18.3353,
4927,Mitsamiouli,KM,82.27,clear sky,-11.3847,43.2844,Foyer ADM
